{"generated":"2026-07-05","count":7341,"countries":{"US":7148,"CA":156,"GB":37},"locations":[{"id":"ca-1b24e3e6","storeNum":"1b24e3e6","name":"TACO BELL 422 BAYLY STREET West","address":"422 Bayly St W","city":"Ajax","state":"","zip":"","country":"CA","lat":43.8408814,"lng":-79.0343339,"phone":"905-686-3125"},{"id":"ca-8c7419ef","storeNum":"8c7419ef","name":"Taco Bell 527 Sandwich St","address":"527 Sandwich St S.","city":"Amherstburg","state":"","zip":"","country":"CA","lat":42.0926315,"lng":-83.1068469,"phone":"5197139449"},{"id":"ca-0e8684f8","storeNum":"0e8684f8","name":"TB 906332 - Belleville","address":"336 N Front St","city":"Belleville","state":"","zip":"","country":"CA","lat":44.18942247609013,"lng":-77.39544466257702,"phone":"+13437100049"},{"id":"ca-18560bda","storeNum":"18560bda","name":"Taco Bell 25 Peel Centre Dr.","address":"25 Peel Centre Dr #441","city":"Brampton","state":"","zip":"","country":"CA","lat":43.715,"lng":-79.7202,"phone":"+1 905-458-5900"},{"id":"ca-3da3a00b","storeNum":"3da3a00b","name":"Paris","address":"185 Pinehurst Rd","city":"Brant","state":"","zip":"","country":"CA","lat":43.21799,"lng":-80.3913,"phone":"519-442-2968"},{"id":"ca-d5777c13","storeNum":"d5777c13","name":"Taco Bell 11 Sinclair Blvd","address":"11 Sinclair Blvd","city":"Brantford","state":"","zip":"","country":"CA","lat":43.1705651,"lng":-80.21520369999999,"phone":"+1 519-770-1436"},{"id":"ca-9f6d73a2","storeNum":"9f6d73a2","name":"Taco Bell 656 Colborne Street","address":"656 Colborne St","city":"Brantford","state":"","zip":"","country":"CA","lat":43.14135926,"lng":-80.23850564,"phone":"+15197532442"},{"id":"ca-3283de0a","storeNum":"3283de0a","name":"Taco Bell 68 King George Road","address":"68 King George Brantford","city":"Brantford","state":"","zip":"","country":"CA","lat":43.1645563,"lng":-80.27407536,"phone":"+15197522686"},{"id":"ca-8d998bd0","storeNum":"8d998bd0","name":"Taco Bell 1595 32 Ave NE","address":"1595 32 Ave NE","city":"Calgary","state":"","zip":"","country":"CA","lat":51.0807529,"lng":-114.0239299,"phone":"+14032300061"},{"id":"ca-e7a59d46","storeNum":"e7a59d46","name":"Taco Bell 328 ST-CLAIR ST N","address":"328 St.Clair Street","city":"Chatham","state":"","zip":"","country":"CA","lat":42.4132315,"lng":-82.1980029,"phone":"+15193517485"},{"id":"ca-f7c81ea6","storeNum":"f7c81ea6","name":"Taco Bell 6603 51st Ave.","address":"6603 51st Ave.","city":"Cold Lake","state":"","zip":"","country":"CA","lat":54.43225229999999,"lng":-110.2052848,"phone":"780-639-3270"},{"id":"ca-5becc22b","storeNum":"5becc22b","name":"Taco Bell 418 Ninth St W","address":"418 Ninth Street W #H1","city":"Cornwall","state":"","zip":"","country":"CA","lat":45.02560533,"lng":-74.74425802,"phone":"+16133613267"},{"id":"ca-74b4820d","storeNum":"74b4820d","name":"Taco Bell 3431 Gateway Blvd","address":"3431 Gateway Blvd NW","city":"Edmonton","state":"","zip":"","country":"CA","lat":53.46901,"lng":-113.49153,"phone":"587-490-4892"},{"id":"ca-97d17be4","storeNum":"97d17be4","name":"Taco Bell 644 Garrison Road","address":"644 Garrison Road","city":"Fort Erie","state":"","zip":"","country":"CA","lat":42.90617013,"lng":-78.93848996,"phone":"+13656075945"},{"id":"ca-f9793bc2","storeNum":"f9793bc2","name":"Taco Bell Regent Mall Fredericton","address":"1381 Regent Street","city":"Fredericton","state":"","zip":"","country":"CA","lat":45.9362327,"lng":-66.664994,"phone":"+1 506-458-8226"},{"id":"ca-bc2932f8","storeNum":"bc2932f8","name":"Taco Bell 11509 Westgate Dr.","address":"11509 Westgate Dr.","city":"Grand Prairie","state":"","zip":"","country":"CA","lat":55.1713253,"lng":-118.8420165,"phone":"+17804023381"},{"id":"ca-928d54a6","storeNum":"928d54a6","name":"Taco Bell 424 S. Service Rd.","address":"424 South service Road","city":"Grimsby","state":"","zip":"","country":"CA","lat":43.2054507,"lng":-79.59769299999999,"phone":"N/A"},{"id":"ca-ba7ba1c0","storeNum":"ba7ba1c0","name":"Taco Bell 20 Woodlawn","address":"20 WOODLAWN ROAD EAST","city":"Guelph","state":"","zip":"","country":"CA","lat":43.566887,"lng":-80.275671,"phone":"+15197802999"},{"id":"ca-01f3121d","storeNum":"01f3121d","name":"Taco Bell 455 Woodlawn Rd W","address":"455 Woodlawn Guelph","city":"Guelph","state":"","zip":"","country":"CA","lat":43.542706,"lng":-80.308946,"phone":"+15197635919"},{"id":"ca-502ac1ff","storeNum":"502ac1ff","name":"Taco Bell Stone Rd","address":"435 Stone Road W FC4","city":"Guelph","state":"","zip":"","country":"CA","lat":43.518275,"lng":-80.238753,"phone":"+15197804262"},{"id":"ca-1fb58d74","storeNum":"1fb58d74","name":"Taco Bell 1195 Barton St. E","address":"1195 Barton St. E.","city":"Hamilton","state":"","zip":"","country":"CA","lat":43.2507683,"lng":-79.8107507,"phone":"N/A"},{"id":"ca-a05553f8","storeNum":"a05553f8","name":"Taco Bell 1550 UPPER JAMES ST N","address":"1550 Upper James Hamilton","city":"Hamilton","state":"","zip":"","country":"CA","lat":43.203305,"lng":-79.894502,"phone":"+19053876006"},{"id":"ca-8ea67bc7","storeNum":"8ea67bc7","name":"Taco Bell 2154 Rymal Rd","address":"2154 Rymal Rd E","city":"Hamilton","state":"","zip":"","country":"CA","lat":43.17570751,"lng":-79.78897001,"phone":"+19056922224"},{"id":"ca-0fefcc8a","storeNum":"0fefcc8a","name":"Taco Bell 677 Upper James St","address":"677 Upper James Hamilton","city":"Hamilton","state":"","zip":"","country":"CA","lat":43.237045,"lng":-79.877273,"phone":"+19053838877"},{"id":"ca-d93cfb86","storeNum":"d93cfb86","name":"Taco Bell 744 QUEENSTON RD N","address":"744 Queenston Rd Hamilton","city":"Hamilton","state":"","zip":"","country":"CA","lat":43.2287612,"lng":-79.76939,"phone":"+19055730733"},{"id":"ca-9f57a286","storeNum":"9f57a286","name":"TB 906322 - Hawkesbury","address":"500 Spence Ave. Bldg 350","city":"Hawkesbury","state":"","zip":"","country":"CA","lat":45.59771,"lng":-74.6096,"phone":"+1 (343) 500-0172"},{"id":"ca-a27f212e","storeNum":"a27f212e","name":"Taco Bell 15 Hanes Rd","address":"15 Hanes Rd.","city":"Huntsville","state":"","zip":"","country":"CA","lat":45.3394081,"lng":-79.21996860000002,"phone":"705-788-1078"},{"id":"ca-3ec9ac65","storeNum":"3ec9ac65","name":"Taco Bell 457 Hazeldean Road","address":"461 Hazeldean Road","city":"Kanata","state":"","zip":"","country":"CA","lat":45.29976528,"lng":-75.88680307,"phone":"+16135916732"},{"id":"ca-15763ce0","storeNum":"15763ce0","name":"Taco Bell Bath Road","address":"1668 Bath Road","city":"Kingston","state":"","zip":"","country":"CA","lat":44.23305661,"lng":-76.47988929,"phone":"+1 613-389-5393"},{"id":"ca-3fddd5c4","storeNum":"3fddd5c4","name":"Taco Bell 329 Main Street East","address":"329 Main Street East","city":"Kingsville","state":"","zip":"","country":"CA","lat":42.03795934,"lng":-82.72473755,"phone":"+15197332733"},{"id":"ca-3ecd470e","storeNum":"3ecd470e","name":"Taco Bell 2480 Homer Watson Bouleva","address":"2480 Homer Watson Blvd","city":"Kitchener","state":"","zip":"","country":"CA","lat":43.38588169,"lng":-80.41151646,"phone":"+15198943434"},{"id":"ca-72c8694b","storeNum":"72c8694b","name":"Taco Bell 2301 Sandwich West Pkwy.","address":"2301 Sandwich West Pkwy","city":"LaSalle","state":"","zip":"","country":"CA","lat":42.2368178,"lng":-83.018352,"phone":"N/A"},{"id":"ca-36bc0afa","storeNum":"36bc0afa","name":"Taco Bell 1 Commerce Rd","address":"1 Commerce Rd","city":"Lindsay","state":"","zip":"","country":"CA","lat":44.3490405,"lng":-78.7626305,"phone":"+17053246174"},{"id":"ca-b95fa3c9","storeNum":"b95fa3c9","name":"Taco Bell 300 Mitchell Rd S","address":"300 Mitchell Rd S","city":"Listowel","state":"","zip":"","country":"CA","lat":43.734271,"lng":-80.966428,"phone":"519-418-3040"},{"id":"ca-7a9cf613","storeNum":"7a9cf613","name":"London - Adelaide Street","address":"1850 Adelaide St N.","city":"London","state":"","zip":"","country":"CA","lat":43.04756852,"lng":-81.26001808,"phone":"(519) 672-4046"},{"id":"ca-c864bfd9","storeNum":"c864bfd9","name":"TB 906327 - London","address":"1020 Wonderland Rd. S.","city":"London","state":"","zip":"","country":"CA","lat":42.94005891,"lng":-81.28096811,"phone":"+1226-330-0770"},{"id":"ca-e940e199","storeNum":"e940e199","name":"Taco Bell 1145 HIGHBURY AVE N","address":"1145 Highbury Ave London","city":"London","state":"","zip":"","country":"CA","lat":43.0135584,"lng":-81.2126526,"phone":"+15194559737"},{"id":"ca-986e66dd","storeNum":"986e66dd","name":"Taco Bell 1584 DUNDAS ST E","address":"1584 Dundas St E.London","city":"London","state":"","zip":"","country":"CA","lat":43.0000693,"lng":-81.1930953,"phone":"+15194554338"},{"id":"ca-6fb67f34","storeNum":"6fb67f34","name":"Taco Bell 5000 Hwy 7","address":"5000 HWY 7","city":"Markham","state":"","zip":"","country":"CA","lat":43.8688499,"lng":-79.28848579999999,"phone":"+19059440258"},{"id":"ca-d50d8d2a","storeNum":"d50d8d2a","name":"Taco Bell 1071 Ross Glen Dr.","address":"951035 - Ross Glen Drive","city":"Medicine Hat","state":"","zip":"","country":"CA","lat":50.0025552,"lng":-110.6427902,"phone":"403-529-6703"},{"id":"ca-50ff8ee0","storeNum":"50ff8ee0","name":"Taco Bell 100 City Center Dr.","address":"100 City Centre Dr","city":"Mississauga","state":"","zip":"","country":"CA","lat":43.5927272,"lng":-79.6431065,"phone":"+1 416-207-8916"},{"id":"ca-4c0cfa50","storeNum":"4c0cfa50","name":"Taco Bell 985 Eglinton Avenue East","address":"985 Eglinton Mississauga","city":"Mississauga","state":"","zip":"","country":"CA","lat":43.62666014,"lng":-79.63176576,"phone":"+19052389514"},{"id":"ca-4beb6ea1","storeNum":"4beb6ea1","name":"Taco Bell Commonwealth Ave.","address":"47-49 Commonwealth Ave","city":"Mount Pearl","state":"","zip":"","country":"CA","lat":47.5168666,"lng":-52.8060295,"phone":"+17099840147"},{"id":"ca-733bbaa0","storeNum":"733bbaa0","name":"Taco Bell 3770 Montrose Rd","address":"3770 Montrose Rd.","city":"Niagara Falls","state":"","zip":"","country":"CA","lat":43.1175215,"lng":-79.12408479999999,"phone":"905-371-0707"},{"id":"ca-3067e037","storeNum":"3067e037","name":"TB 906325 - North Bay","address":"2021 Algonquin Ave","city":"North Bay","state":"","zip":"","country":"CA","lat":46.33314,"lng":-79.4665,"phone":"+17059954473"},{"id":"ca-ae4d76ab","storeNum":"ae4d76ab","name":"TB 906323 - North York","address":"4804-4812 Yonge Street","city":"North York","state":"","zip":"","country":"CA","lat":43.76159,"lng":-79.4115,"phone":"+1 (647) 417-0278"},{"id":"ca-83f7ded7","storeNum":"83f7ded7","name":"Taco Bell 1800 Sheppard Ave","address":"1800 Sheppard Ave East","city":"North York","state":"","zip":"","country":"CA","lat":43.7777951,"lng":-79.3432855,"phone":"N/A"},{"id":"ca-0b415d90","storeNum":"0b415d90","name":"Taco Bell 3975 Jane Street","address":"3979 Jane St. North York","city":"North York","state":"","zip":"","country":"CA","lat":43.75618877,"lng":-79.51603215,"phone":"+14166316070"},{"id":"ca-cf6d9dbf","storeNum":"cf6d9dbf","name":"TB 906326 - Orillia","address":"705 University Ave","city":"Orillia","state":"","zip":"","country":"CA","lat":44.59814,"lng":-79.45344,"phone":"+1 (249) 449-3192"},{"id":"ca-4bb0e430","storeNum":"4bb0e430","name":"TB 906321 - Oshawa","address":"1326 Simcoe Street N.","city":"Oshawa","state":"","zip":"","country":"CA","lat":43.93247,"lng":-78.8793,"phone":"+1 (905) 725-9775"},{"id":"ca-c822069d","storeNum":"c822069d","name":"Taco Bell 419 King St. West","address":"419 King St West","city":"Oshawa","state":"","zip":"","country":"CA","lat":43.8904891,"lng":-78.8797599,"phone":"+19057238200"},{"id":"ca-22fbf8bf","storeNum":"22fbf8bf","name":"TACO BELL 1200 ST-LAURENT BLVD.","address":"1200 St. Laurent Blvd","city":"Ottawa","state":"","zip":"","country":"CA","lat":45.4219466,"lng":-75.6387057,"phone":"613-7217664"},{"id":"ca-1a94a3d2","storeNum":"1a94a3d2","name":"TACO BELL FC 12, 100 BAYSHORE DRIVE","address":"100 Bayshore Dr fc 12","city":"Ottawa","state":"","zip":"","country":"CA","lat":45.3469493,"lng":-75.80655809999999,"phone":"613-932-0323"},{"id":"ca-ce342404","storeNum":"ce342404","name":"Taco Bell 305 Rideau St.","address":"305 Rideau St.","city":"Ottawa","state":"","zip":"","country":"CA","lat":45.4291267,"lng":-75.6853593,"phone":"6137441625"},{"id":"ca-d2b39919","storeNum":"d2b39919","name":"Taco Bell 3025 Petawawa Dr","address":"3025 Petawawa Dr","city":"Petawawa","state":"","zip":"","country":"CA","lat":45.8884584,"lng":-77.2608978,"phone":"613-687-2526"},{"id":"ca-8fa0929c","storeNum":"8fa0929c","name":"TB 906334 - Peterborough","address":"595 Lansdowne Avenue","city":"Peterborough","state":"","zip":"","country":"CA","lat":44.2856834,"lng":-78.3292557,"phone":"+17057401694"},{"id":"ca-b800c896","storeNum":"b800c896","name":"Taco Bell North Hill","address":"6889 50 Ave","city":"Red Deer","state":"","zip":"","country":"CA","lat":52.2954885,"lng":-113.8129441,"phone":"+14033402700"},{"id":"ca-3a21c528","storeNum":"3a21c528","name":"Taco Bell 4440 Albert St.","address":"951021 - Regina","city":"Regina","state":"","zip":"","country":"CA","lat":50.4090645,"lng":-104.6193753,"phone":"306-585-3131"},{"id":"ca-d1dcceee","storeNum":"d1dcceee","name":"Taco Bell 1306 22nd St","address":"1312 22ND ST W.","city":"SASKATOON","state":"","zip":"","country":"CA","lat":52.129419,"lng":-106.689043,"phone":"+13069523485"},{"id":"ca-af8f7c09","storeNum":"af8f7c09","name":"Taco Bell 2941 8th St","address":"2941 8 St E","city":"SASKATOON","state":"","zip":"","country":"CA","lat":52.115204,"lng":-106.611457,"phone":"+13069520890"},{"id":"ca-dd294fc4","storeNum":"dd294fc4","name":"Taco Bell Fairville Blvd.","address":"944 Fairville Blvd","city":"Saint John","state":"","zip":"","country":"CA","lat":45.249,"lng":-66.104,"phone":"+15066577788"},{"id":"ca-3b531ea0","storeNum":"3b531ea0","name":"TACO BELL 101, 8737 - 120 STREET","address":"#101","city":"Santa Monica, CA, USA","state":"","zip":"","country":"CA","lat":49.161485,"lng":-122.890942,"phone":"778-578-5062"},{"id":"ca-0891f69b","storeNum":"0891f69b","name":"TACO BELL 1070 MAJOR MACKENZIE DRIVE EAST","address":"1070 Major Mackenzie Drive East Richmond Hill ON L4S 1P3","city":"Santa Monica, CA, USA","state":"","zip":"","country":"CA","lat":43.876518,"lng":-79.411631,"phone":"905-884-3444"},{"id":"ca-78676210","storeNum":"78676210","name":"TACO BELL 1338 KENNEDY ROAD","address":"1338 Kennedy Road Scarborough ON M1P 1L5","city":"Santa Monica, CA, USA","state":"","zip":"","country":"CA","lat":43.760847,"lng":-79.279902,"phone":"416-755-6028"},{"id":"ca-bd08d55d","storeNum":"bd08d55d","name":"TACO BELL 13577 73RD AVENUE","address":"13577 73rd Avenue Surrey BC V3W 2R5","city":"Santa Monica, CA, USA","state":"","zip":"","country":"CA","lat":49.135281,"lng":-122.845967,"phone":"604-596-7999"},{"id":"ca-bb76947f","storeNum":"bb76947f","name":"TACO BELL 1610 THE QUEENSWAY","address":"1610 The Queensway Etobicoke ON M8Z 1V1","city":"Santa Monica, CA, USA","state":"","zip":"","country":"CA","lat":43.617362,"lng":-79.54418,"phone":"416-255-1917"},{"id":"ca-dc9abe5b","storeNum":"dc9abe5b","name":"TACO BELL 166 SIMCOE STREET","address":"166 Simcoe Street Tillsonburg ON N2G 2J1","city":"Santa Monica, CA, USA","state":"","zip":"","country":"CA","lat":42.858069,"lng":-80.706891,"phone":"519-842-8481"},{"id":"ca-c8315d54","storeNum":"c8315d54","name":"TACO BELL 1680 RICHMOND STREET","address":"1680 Richmond Street London ON N6G 3Y9","city":"Santa Monica, CA, USA","state":"","zip":"","country":"CA","lat":43.02643,"lng":-81.278678,"phone":"519-6429502"},{"id":"ca-630de310","storeNum":"630de310","name":"TACO BELL 170 HWY. 16A","address":"170 Hwy. 16A Spruce Grove AB T7X 3X3","city":"Santa Monica, CA, USA","state":"","zip":"","country":"CA","lat":53.541871,"lng":-113.927323,"phone":"780-962-4822"},{"id":"ca-6d6f7659","storeNum":"6d6f7659","name":"TACO BELL 1741 ALBION ROAD","address":"1727 Albion Road Etobicoke ON M9V 1C1","city":"Santa Monica, CA, USA","state":"","zip":"","country":"CA","lat":43.743312,"lng":-79.605022,"phone":"416-743-7486"},{"id":"ca-f90e8ad7","storeNum":"f90e8ad7","name":"TACO BELL 1915 HYDE PARK ROAD","address":"1915 Hyde Park Road London ON N6H 0A3","city":"Santa Monica, CA, USA","state":"","zip":"","country":"CA","lat":43.00859,"lng":-81.336242,"phone":"519-471-2283"},{"id":"ca-7b3b69f0","storeNum":"7b3b69f0","name":"TACO BELL 19971 64TH AVENUE","address":"19971 64th Avenue Langley BC V2Y1G9","city":"Santa Monica, CA, USA","state":"","zip":"","country":"CA","lat":49.119481,"lng":-122.669005,"phone":"604-530-2032"},{"id":"ca-7fe68366","storeNum":"7fe68366","name":"TACO BELL 2 KING STREET WEST","address":"2 King Street West","city":"Santa Monica, CA, USA","state":"","zip":"","country":"CA","lat":43.257295,"lng":-79.869124,"phone":"905-308-7542"},{"id":"ca-5a26eac4","storeNum":"5a26eac4","name":"TACO BELL 21 MIC MAC BLVD.","address":"21 Mic Mac Blvd. Dartmouth NS B3A 4N3","city":"Santa Monica, CA, USA","state":"","zip":"","country":"CA","lat":44.686369,"lng":-63.559354,"phone":"902-463-1300"},{"id":"ca-66ec29d3","storeNum":"66ec29d3","name":"TACO BELL 2225 ERIN MILLS PARKWAY","address":"2225 Erin Mills Parkway Mississauga ON L5K 1T8","city":"Santa Monica, CA, USA","state":"","zip":"","country":"CA","lat":43.530318,"lng":-79.656029,"phone":"905-822-5454"},{"id":"ca-d3e0c638","storeNum":"d3e0c638","name":"TACO BELL 2300 YONGE STREET","address":"2300 Yonge Street Toronto ON M4P 1E4","city":"Santa Monica, CA, USA","state":"","zip":"","country":"CA","lat":43.707276,"lng":-79.399562,"phone":"416-483-6544"},{"id":"ca-f8dedde4","storeNum":"f8dedde4","name":"TACO BELL 281 MAIN STREET","address":"281 Main Street Wasaga Beach ON L9Z 0B6","city":"Santa Monica, CA, USA","state":"","zip":"","country":"CA","lat":44.523358,"lng":-80.009448,"phone":"705-422-0118"},{"id":"ca-3a836fe8","storeNum":"3a836fe8","name":"TACO BELL 29 WARNE CRESCENT","address":"29 Warne Crescent Kingston ON K7K 5A6","city":"Santa Monica, CA, USA","state":"","zip":"","country":"CA","lat":44.267,"lng":-76.500008,"phone":"613-531-9693"},{"id":"ca-97696cfb","storeNum":"97696cfb","name":"TACO BELL 2960 KINGSWAY DRIVE","address":"2960 Kingsway Drive Kitchener ON N2C 1X1","city":"Santa Monica, CA, USA","state":"","zip":"","country":"CA","lat":43.425191,"lng":-80.438539,"phone":"519-748-6464"},{"id":"ca-a4f298ff","storeNum":"a4f298ff","name":"TACO BELL 300-2991 LOUGHEED HIGHWAY","address":"#300-2991 Lougheed Highway Coquitlam BC V3B 6J6","city":"Santa Monica, CA, USA","state":"","zip":"","country":"CA","lat":49.277924,"lng":-122.795203,"phone":"604-464-2025"},{"id":"ca-a7f77532","storeNum":"a7f77532","name":"TACO BELL 315 BAYFIELD STREET NORTH","address":"315 Bayfield Street North Barrie ON L4M 3C2","city":"Santa Monica, CA, USA","state":"","zip":"","country":"CA","lat":44.401462,"lng":-79.699826,"phone":"705-726-7220"},{"id":"ca-f0e097e2","storeNum":"f0e097e2","name":"TACO BELL 3777 KEELE STREET","address":"3777 Keele Street North York ON M3J 1N5","city":"Santa Monica, CA, USA","state":"","zip":"","country":"CA","lat":43.758859,"lng":-79.489161,"phone":"416-630-4050"},{"id":"ca-998ccd04","storeNum":"998ccd04","name":"TACO BELL 38 BROADWAY AVENUE","address":"38 Broadway Avenue Orangeville ON L9W 1J4","city":"Santa Monica, CA, USA","state":"","zip":"","country":"CA","lat":43.921088,"lng":-80.086513,"phone":"519-941-3393"},{"id":"ca-ebcc376e","storeNum":"ebcc376e","name":"TACO BELL 389 GREAT NORTHERN ROAD","address":"389 Great Northern Road Sault Ste Marie ON P6B 4Z8","city":"Santa Monica, CA, USA","state":"","zip":"","country":"CA","lat":46.537636,"lng":-84.319816,"phone":"705-946-2791"},{"id":"ca-91259b48","storeNum":"91259b48","name":"TACO BELL 391 WEBER STREET NORTH","address":"391 Weber Street North Waterloo ON N2J 3J2","city":"Santa Monica, CA, USA","state":"","zip":"","country":"CA","lat":43.483762,"lng":-80.52511,"phone":"519-885-6680"},{"id":"ca-aab25bf3","storeNum":"aab25bf3","name":"TACO BELL 4027 INNES ROAD","address":"4027 Innes Road Gloucester ON K1C 1T1","city":"Santa Monica, CA, USA","state":"","zip":"","country":"CA","lat":45.455848,"lng":-75.505419,"phone":"613-830-9586"},{"id":"ca-bcaf256a","storeNum":"bcaf256a","name":"TACO BELL 424 SOUTH SERVICE ROAD","address":"424 South Service Road Grimsby ON L3M 4G3","city":"Santa Monica, CA, USA","state":"","zip":"","country":"CA","lat":43.206385,"lng":-79.598227,"phone":"905-309-3963"},{"id":"ca-29db9dc7","storeNum":"29db9dc7","name":"TACO BELL 4431 HIGHWAY 7","address":"4431 Highway #7 Woodbridge ON L4L 5W7","city":"Santa Monica, CA, USA","state":"","zip":"","country":"CA","lat":43.784008,"lng":-79.570394,"phone":"9052640156"},{"id":"ca-1333d23e","storeNum":"1333d23e","name":"TACO BELL 444 YONGE STREET","address":"444 Yonge Street Toronto ON M5B 2H4","city":"Santa Monica, CA, USA","state":"","zip":"","country":"CA","lat":43.661006,"lng":-79.383213,"phone":"416-596-7869"},{"id":"ca-0e5f0da3","storeNum":"0e5f0da3","name":"TACO BELL 45367 LUCKAKUCK WAY","address":"45367 Luckakuck Way Sardis BC V2R 3C7","city":"Santa Monica, CA, USA","state":"","zip":"","country":"CA","lat":49.142923,"lng":-121.969322,"phone":"604-858-3799"},{"id":"ca-f09cde08","storeNum":"f09cde08","name":"TACO BELL 555 NOTRE DAME DRIVE","address":"555 Notre Dame Drive Kamloops BC V2C 1E6","city":"Santa Monica, CA, USA","state":"","zip":"","country":"CA","lat":50.663171,"lng":-120.351955,"phone":"250-374-6534"},{"id":"ca-619eb95b","storeNum":"619eb95b","name":"TACO BELL 56-499 MAIN STREET SOUTH","address":"#56-499 Main Street South Brampton ON L6Y 1N7","city":"Santa Monica, CA, USA","state":"","zip":"","country":"CA","lat":43.666147,"lng":-79.737557,"phone":"905-796-6790"},{"id":"ca-5133f639","storeNum":"5133f639","name":"TACO BELL 6364 YONGE STREET","address":"6364 Yonge Street Toronto ON M2M 3X4","city":"Santa Monica, CA, USA","state":"","zip":"","country":"CA","lat":43.795825,"lng":-79.422985,"phone":"416-223-4472"},{"id":"ca-d9bd72eb","storeNum":"d9bd72eb","name":"TACO BELL 644 YONGE STREET","address":"644 Yonge Street Barrie ON L4N 4E6","city":"Santa Monica, CA, USA","state":"","zip":"","country":"CA","lat":44.355433,"lng":-79.644704,"phone":"705-719-7467"},{"id":"ca-1de6e061","storeNum":"1de6e061","name":"TACO BELL 6555 LUNDYS LANE","address":"6555 Lundy's Lane Niagara Falls ON L2G 1V1","city":"Santa Monica, CA, USA","state":"","zip":"","country":"CA","lat":43.08967,"lng":-79.104051,"phone":"905-357-4336"},{"id":"ca-c6a08eda","storeNum":"c6a08eda","name":"TACO BELL 6896 ISLAND HIGHWAY NORTH","address":"6896 Island Highway North Nanaimo BC V9V 1P6","city":"Santa Monica, CA, USA","state":"","zip":"","country":"CA","lat":49.239589,"lng":-124.051063,"phone":"250-390-1565"},{"id":"ca-07ede71b","storeNum":"07ede71b","name":"TACO BELL 7028 YONGE STREET","address":"7028 Yonge Street Vaughan ON L4J 1V7","city":"Santa Monica, CA, USA","state":"","zip":"","country":"CA","lat":43.798134,"lng":-79.420104,"phone":"905-707-0340"},{"id":"ca-19cf9f00","storeNum":"19cf9f00","name":"TACO BELL 7161 GOREWAY DRIVE","address":"7161 Goreway Drive Mississauga ON L4T 2T5","city":"Santa Monica, CA, USA","state":"","zip":"","country":"CA","lat":43.716921,"lng":-79.635429,"phone":"905-677-3813"},{"id":"ca-61732b6a","storeNum":"61732b6a","name":"TACO BELL 777 GUELPH LINE","address":"777 Guelph Line Burlington ON L7R 3N2","city":"Santa Monica, CA, USA","state":"","zip":"","country":"CA","lat":43.347968,"lng":-79.794066,"phone":"905-631-0437"},{"id":"ca-ecac952b","storeNum":"ecac952b","name":"TACO BELL 9056 152ND STREET","address":"9056 152nd Street Surrey BC V3R 4E7","city":"Santa Monica, CA, USA","state":"","zip":"","country":"CA","lat":49.167411,"lng":-122.800778,"phone":"604-583-7775"},{"id":"ca-0d7f79c2","storeNum":"0d7f79c2","name":"TACO BELL 945 GARDINERS ROAD","address":"945 Gardiners Road Kingston ON K7M 7H4","city":"Santa Monica, CA, USA","state":"","zip":"","country":"CA","lat":44.256253,"lng":-76.572298,"phone":"613-384-1799"},{"id":"ca-c061ec6f","storeNum":"c061ec6f","name":"TACO BELL 9940 AIRPORT ROAD BRAMPTON","address":"9940 Airport Road (at Bovaird Drive) Brampton ON L6S 0C5","city":"Santa Monica, CA, USA","state":"","zip":"","country":"CA","lat":43.761032,"lng":-79.720006,"phone":"905-799-2736"},{"id":"ca-90529fbe","storeNum":"90529fbe","name":"TACO BELL QUINTE MALL BELLEVILLE","address":"390 North Front Street (Quinte Mall) Belleville ON K8P 3C9","city":"Santa Monica, CA, USA","state":"","zip":"","country":"CA","lat":44.189257,"lng":-77.401954,"phone":"613-966-1642"},{"id":"ca-844d0ad6","storeNum":"844d0ad6","name":"TACO BELL SUDBURY CTR","address":"SUDBURY CTR 1349 LASALLE BLVD SUDBURY ON P3A 1Z2","city":"Santa Monica, CA, USA","state":"","zip":"","country":"CA","lat":46.519771,"lng":-80.946406,"phone":"705-670-3066"},{"id":"ca-549ae9e1","storeNum":"549ae9e1","name":"Taco Bell 355 Hespeler Road - Cambridge","address":"355 Hespeler Road Cambridge ON N1R 6B3","city":"Santa Monica, CA, USA","state":"","zip":"","country":"CA","lat":43.393904,"lng":-80.32002,"phone":"250-627-4992"},{"id":"ca-07c19d2b","storeNum":"07c19d2b","name":"Taco Bell 45 Cherrycrest","address":"45 Cherrycrest Drive Brampton ON L6P 0S2","city":"Santa Monica, CA, USA","state":"","zip":"","country":"CA","lat":43.763945,"lng":-79.668782,"phone":"905-794-8105"},{"id":"ca-6743dded","storeNum":"6743dded","name":"Taco Bell Cloverdale","address":"17740 56 Avenue Surrey BC V3S 1C7","city":"Santa Monica, CA, USA","state":"","zip":"","country":"CA","lat":49.103883,"lng":-122.730578,"phone":"604-576-7450"},{"id":"ca-8968d777","storeNum":"8968d777","name":"Taco Bell Conestoga (Food Court) ","address":"550 King Street N. Waterloo ON N2L 5W6","city":"Santa Monica, CA, USA","state":"","zip":"","country":"CA","lat":43.496927,"lng":-80.526384,"phone":"519-746-9109"},{"id":"ca-a3581bf9","storeNum":"a3581bf9","name":"Taco Bell Crossiron Mills","address":"Crossiron Mills 261055 Crossiron Blvd Rocky View Alberta (AB) T4A 0G3","city":"Santa Monica, CA, USA","state":"","zip":"","country":"CA","lat":51.203829,"lng":-113.992272,"phone":"403-274-5137"},{"id":"ca-95b322f7","storeNum":"95b322f7","name":"Taco Bell Ellerslie","address":"9260 Ellerslie Road SW Edmonton AB T6X 0K6","city":"Santa Monica, CA, USA","state":"","zip":"","country":"CA","lat":53.425588,"lng":-113.476571,"phone":"780-485-1474"},{"id":"ca-079eb3c8","storeNum":"079eb3c8","name":"Taco Bell Erin Mills (Food Court)","address":"5100 Erin Mills Parkway Mississauga ON L5M 4Z5","city":"Santa Monica, CA, USA","state":"","zip":"","country":"CA","lat":43.55859,"lng":-79.711549,"phone":"905-828-6996"},{"id":"ca-9dddc2d9","storeNum":"9dddc2d9","name":"Taco Bell Halifax (Food Court)","address":"7001 Mumford Road","city":"Santa Monica, CA, USA","state":"","zip":"","country":"CA","lat":44.649259,"lng":-63.618554,"phone":"902-455-1824"},{"id":"ca-15c68453","storeNum":"15c68453","name":"Taco Bell Lime Ridge(Food Court) ","address":"999 Upper Wentworth Hamilton ON L9A 4X5","city":"Santa Monica, CA, USA","state":"","zip":"","country":"CA","lat":43.217359,"lng":-79.860606,"phone":"905-318-6565"},{"id":"ca-0d5a6620","storeNum":"0d5a6620","name":"Taco Bell Lynden Park (Food Court)","address":"84 Lynden Road Brantford ON N3R 6B8","city":"Santa Monica, CA, USA","state":"","zip":"","country":"CA","lat":43.171496,"lng":-80.239691,"phone":"519-752-4777"},{"id":"ca-e614219d","storeNum":"e614219d","name":"Taco Bell Mapleview (Food Court)","address":"900 Maple Avenue Burlington ON L7S 2J8","city":"Santa Monica, CA, USA","state":"","zip":"","country":"CA","lat":43.325911,"lng":-79.82033,"phone":"905-634-1441"},{"id":"ca-69d0d66c","storeNum":"69d0d66c","name":"Taco Bell Pen Centre (Food Court)","address":"221 Glendale Avenue St. Catharines ON L2T 2K9","city":"Santa Monica, CA, USA","state":"","zip":"","country":"CA","lat":43.136845,"lng":-79.225132,"phone":"905-704-0477"},{"id":"ca-8104b170","storeNum":"8104b170","name":"Taco Bell Store 128003 - Cedarbrae Mall","address":"3495 Lawrence Avenue East Scarborough ON M1H 1B3","city":"Santa Monica, CA, USA","state":"","zip":"","country":"CA","lat":43.757711,"lng":-79.228566,"phone":"416-439-7333"},{"id":"ca-d3328c56","storeNum":"d3328c56","name":"Taco Bell Store 128004 - Upper Canada Mall","address":"17600 Yonge Street North Newmarket ON L3Y 4Z1","city":"Santa Monica, CA, USA","state":"","zip":"","country":"CA","lat":44.056289,"lng":-79.485645,"phone":"905-830-1919"},{"id":"ca-a62f2665","storeNum":"a62f2665","name":"Taco Bell Store 128005 - Morningside","address":"245 Morningside Avenue Scarborough ON M1E 3E6","city":"Santa Monica, CA, USA","state":"","zip":"","country":"CA","lat":43.768816,"lng":-79.18562,"phone":"416-724-7575"},{"id":"ca-ffa1e839","storeNum":"ffa1e839","name":"Taco Bell Store 208001 - Brampton West","address":"9465 Mississauga Road Brampton ON L6X 0Z8","city":"Santa Monica, CA, USA","state":"","zip":"","country":"CA","lat":43.656454,"lng":-79.814339,"phone":"905-453-8118"},{"id":"ca-c621dc2f","storeNum":"c621dc2f","name":"Taco Bell Store T05006 - Pickering Town Centre","address":"1355 Kingston Road Pickering ON L1V 1B8","city":"Santa Monica, CA, USA","state":"","zip":"","country":"CA","lat":43.8363,"lng":-79.086223,"phone":"905-837-0774"},{"id":"ca-27896c11","storeNum":"27896c11","name":"Taco Bell Terwillegar","address":"14311-23rd Avenue Edmonton AB T6R 3E7","city":"Santa Monica, CA, USA","state":"","zip":"","country":"CA","lat":53.453659,"lng":-113.568431,"phone":"780-988-8000"},{"id":"ca-a6e54331","storeNum":"a6e54331","name":"Taco Bell West Lethbridge","address":"188 Columbia Blvd. West Lethbridge AB T1K 4J4","city":"Santa Monica, CA, USA","state":"","zip":"","country":"CA","lat":49.675427,"lng":-112.875555,"phone":"403-381-0244"},{"id":"ca-8bdc98c1","storeNum":"8bdc98c1","name":"Taco Bell 1337 London Road","address":"1337 London Rd","city":"Sarnia","state":"","zip":"","country":"CA","lat":42.979514,"lng":-82.3568577,"phone":"+15193837875"},{"id":"ca-7b5f3dd9","storeNum":"7b5f3dd9","name":"Taco Bell 260 Indian Rd S","address":"260 Indian Road South","city":"Sarnia","state":"","zip":"","country":"CA","lat":42.9652095,"lng":-82.3753591,"phone":"+15194911068"},{"id":"ca-042d15df","storeNum":"042d15df","name":"TB 906903 - Station Mall","address":"293 Bay Street","city":"Sault Ste. Marie","state":"","zip":"","country":"CA","lat":46.512,"lng":-84.339,"phone":"+17052510631"},{"id":"ca-d14cf2db","storeNum":"d14cf2db","name":"TB 906324 - Scarborough","address":"1620 Birchmount Road","city":"Scarborough","state":"","zip":"","country":"CA","lat":43.76292908,"lng":-79.29170339,"phone":"647-417-1443"},{"id":"ca-0802f12a","storeNum":"0802f12a","name":"Taco Bell 950 Talbot Street","address":"950 Talbot St. Thomas","city":"St. Thomas","state":"","zip":"","country":"CA","lat":42.778544,"lng":-81.180219,"phone":"+15166333370"},{"id":"ca-bc9a5bb2","storeNum":"bc9a5bb2","name":"Taco Bell 641 Erie St.","address":"641 Erie Street","city":"Stratford","state":"","zip":"","country":"CA","lat":43.3562704,"lng":-80.9950714,"phone":"5192711499"},{"id":"ca-23755300","storeNum":"23755300","name":"Taco Bell 1655 Manning Road","address":"1655 Manning Road","city":"Tecumseh","state":"","zip":"","country":"CA","lat":42.30802578,"lng":-82.86965596,"phone":"+1 519-735-5000"},{"id":"ca-45165fa1","storeNum":"45165fa1","name":"Taco Bell 1101 Arthur St. W","address":"1101 Arthur Street West","city":"Thunder Bay","state":"","zip":"","country":"CA","lat":48.38,"lng":-89.3,"phone":"+18075772809"},{"id":"ca-639509aa","storeNum":"639509aa","name":"TB 906329 - College St.","address":"257 College Street","city":"Toronto","state":"","zip":"","country":"CA","lat":43.657,"lng":-79.399,"phone":"(647) 805-8525"},{"id":"ca-665b3afe","storeNum":"665b3afe","name":"TB 906339 - Toronto","address":"605 Rogers Rd","city":"Toronto","state":"","zip":"","country":"CA","lat":43.6872,"lng":-79.4608,"phone":"+14373173086"},{"id":"ca-10447888","storeNum":"10447888","name":"TB 906904 - Yorkdale Mall Toronto","address":"Yorkdale Mall","city":"Toronto","state":"","zip":"","country":"CA","lat":43.7251083,"lng":-79.45280869999999,"phone":"+647-925-5947"},{"id":"ca-7efa5000","storeNum":"7efa5000","name":"Taco Bell 1090 Bloor St.","address":"1090 Bloor St. W","city":"Toronto","state":"","zip":"","country":"CA","lat":43.66,"lng":-79.434,"phone":"4165164645"},{"id":"ca-379ed24e","storeNum":"379ed24e","name":"Taco Bell 260 Church St.","address":"252 Church Street","city":"Toronto","state":"","zip":"","country":"CA","lat":43.6562121,"lng":-79.377251,"phone":"N/A"},{"id":"ca-7bd57887","storeNum":"7bd57887","name":"Taco Bell 609 Danforth Ave","address":"609 Danforth Avenue","city":"Toronto","state":"","zip":"","country":"CA","lat":43.6785969,"lng":-79.3459091,"phone":"+14164666174"},{"id":"ca-fb55eff0","storeNum":"fb55eff0","name":"Taco Bell Scarborough Town Centre","address":"300 Borough Dr","city":"Toronto","state":"","zip":"","country":"CA","lat":43.77572809999999,"lng":-79.2574487,"phone":"+14162961287"},{"id":"ca-61f6c670","storeNum":"61f6c670","name":"Taco Bell Union Station","address":"65 Front St.","city":"Toronto","state":"","zip":"","country":"CA","lat":43.645316,"lng":-79.3804079,"phone":"647-398-9420"},{"id":"ca-3de7ffe7","storeNum":"3de7ffe7","name":"Taco Bell Woodside (Food Court)","address":"1571 Sandhurst Cir","city":"Toronto","state":"","zip":"","country":"CA","lat":43.8098606,"lng":-79.2690966,"phone":"416-297-1952"},{"id":"ca-8cc70a6d","storeNum":"8cc70a6d","name":"TB 906802 - Vancouver","address":"964 Granville St.","city":"Vancouver","state":"","zip":"","country":"CA","lat":49.2794019,"lng":-123.1225486,"phone":"778-357-3408"},{"id":"ca-c7f6e806","storeNum":"c7f6e806","name":"TB 906337 - Vaughan","address":"2268 Rutherford Rd","city":"Vaughan","state":"","zip":"","country":"CA","lat":43.8247,"lng":-79.5298,"phone":"+12894592661"},{"id":"ca-3a405613","storeNum":"3a405613","name":"Taco Bell 1 Bass Pro Mills Dr.","address":"1 Bass Pro Mills Dr.","city":"Vaughan","state":"","zip":"","country":"CA","lat":43.8256383,"lng":-79.5382147,"phone":"+1 905-669-1778"},{"id":"ca-282705a1","storeNum":"282705a1","name":"TB 906801 - Vernon","address":"4510 \u2013 27th Street","city":"Vernon","state":"","zip":"","country":"CA","lat":50.2787178,"lng":-119.2688388,"phone":"+17785062767"},{"id":"ca-72b75c69","storeNum":"72b75c69","name":"Taco Bell 1644 Dufferin Ave","address":"1644 Dufferin Ave","city":"Wallaceburg","state":"","zip":"","country":"CA","lat":42.593599,"lng":-82.403364,"phone":"+15196278593"},{"id":"ca-52ab2c86","storeNum":"52ab2c86","name":"Taco Bell 60 McNaughton Ave","address":"60 McNaughton Ave","city":"Wallaceburg","state":"","zip":"","country":"CA","lat":42.5851081,"lng":-82.3853986,"phone":"+15196268565"},{"id":"ca-bd5a84cd","storeNum":"bd5a84cd","name":"Taco Bell 70 Primeway Dr.","address":"70 Primeway Dr.","city":"Welland","state":"","zip":"","country":"CA","lat":43.0141301,"lng":-79.2289526,"phone":"(905) 714-4950"},{"id":"ca-0fe76137","storeNum":"0fe76137","name":"TB 906320 - Whitby","address":"86 Thickson Road South","city":"Whitby","state":"","zip":"","country":"CA","lat":43.88287,"lng":-78.9121,"phone":"905-668-6151"},{"id":"ca-66860d39","storeNum":"66860d39","name":"TB 906901 - Windsor","address":"DEVONSHIRE MALL","city":"Windsor","state":"","zip":"","country":"CA","lat":42.274692,"lng":-83.001241,"phone":"(519) 969-9028"},{"id":"ca-c2ddb47f","storeNum":"c2ddb47f","name":"Taco Bell 1790 Huron Church Rd","address":"1790 Huron Church Rd","city":"Windsor","state":"","zip":"","country":"CA","lat":42.2838414,"lng":-83.0552039,"phone":"+1 519-977-0662"},{"id":"ca-77c90acd","storeNum":"77c90acd","name":"Taco Bell 300 TECUMSEH RD N","address":"300 Tecumseh Rd East","city":"Windsor","state":"","zip":"","country":"CA","lat":42.298019,"lng":-83.019886,"phone":"+1 (519) 971-7268"},{"id":"ca-5669e42e","storeNum":"5669e42e","name":"Taco Bell 301 Ouellette Avenue","address":"301 Ouellette Ave","city":"Windsor","state":"","zip":"","country":"CA","lat":42.31732,"lng":-83.03928,"phone":"+15199151665"},{"id":"ca-142abf1f","storeNum":"142abf1f","name":"Taco Bell 3054 DOUGALL AVE N","address":"3054 Dougall Avenue","city":"Windsor","state":"","zip":"","country":"CA","lat":42.2717,"lng":-83.012447,"phone":"+15199667688"},{"id":"ca-41c433a8","storeNum":"41c433a8","name":"Taco Bell 3419 TECUMSEH RD N","address":"3419 Tecumseh Rd East","city":"Windsor","state":"","zip":"","country":"CA","lat":42.30445,"lng":-82.981481,"phone":"+15199444613"},{"id":"ca-b8b3c80a","storeNum":"b8b3c80a","name":"Taco Bell 6707 TECUMSEH RD E N","address":"6707 Tecumseh Road East","city":"Windsor","state":"","zip":"","country":"CA","lat":42.311657,"lng":-82.943059,"phone":"+1 519-948-3425"},{"id":"ca-a6eb02eb","storeNum":"a6eb02eb","name":"Taco Bell Dundas St.","address":"1000 Dundas St","city":"Woodstock","state":"","zip":"","country":"CA","lat":43.1336415,"lng":-80.7279964,"phone":"N/A"},{"id":"uk-92003","storeNum":"92003","name":"Barnsley - Peel Street","address":"Unit 1, Peel Street","city":"","state":"","zip":"S70 2RL","country":"GB","lat":53.552338,"lng":-1.48579,"phone":"01226 246124"},{"id":"uk-92003","storeNum":"92003","name":"Barnsley - Rockingham","address":"Dearne Valley Parkway","city":"Barnsley","state":"","zip":"S70 5TW","country":"GB","lat":53.552363,"lng":-1.485789,"phone":"01226 742653"},{"id":"uk-93008","storeNum":"93008","name":"London - Holborn","address":"75 Southampton Row","city":"Bloomsbury","state":"","zip":"WC1B 4ET","country":"GB","lat":51.5203205,"lng":-0.125156,"phone":"020 7580 6698"},{"id":"uk-93006","storeNum":"93006","name":"Bournemouth - Old Christchurch Road","address":"146 - 148 Old Christchurch Road","city":"Bournemouth","state":"","zip":"BH1 1NL","country":"GB","lat":50.722335,"lng":-1.873208,"phone":"01202 291381"},{"id":"uk-92004","storeNum":"92004","name":"Bradford - The Broadway Centre","address":"Unit 4, The Food Court Charles Street Mall","city":"Bradford","state":"","zip":"BD1 1US","country":"GB","lat":53.794379,"lng":-1.7501637,"phone":"01274 737406"},{"id":"uk-93005","storeNum":"93005","name":"Brighton - Western Road","address":"Unit 4, 95 - 99 Western road","city":"Brighton","state":"","zip":"BN1 2LB","country":"GB","lat":50.824718,"lng":-0.15221,"phone":"01273 326896"},{"id":"uk-90003","storeNum":"90003","name":"Chelmsford - Moulsham Street","address":"218 Moulsham Street","city":"Chelmsford","state":"","zip":"CM2 0LR","country":"GB","lat":51.730831,"lng":0.473735,"phone":"01245 258994"},{"id":"uk-92006","storeNum":"92006","name":"Cleethorpes - Meridian Point Retail Park","address":"Kings Road","city":"Cleethorpes","state":"","zip":"DN35 0AQ","country":"GB","lat":53.545413,"lng":-0.01345,"phone":"01472 600011"},{"id":"uk-94004","storeNum":"94004","name":"Colindale - Colindale Avenue","address":"130 Colindale Avenue","city":"Colindale","state":"","zip":"NW9 4AX","country":"GB","lat":51.5944172,"lng":-0.252119,"phone":"020 399 06631"},{"id":"uk-93012","storeNum":"93012","name":"Croydon - George Street","address":"38 George Street","city":"Croydon","state":"","zip":"CR0 1PB","country":"GB","lat":51.3738582,"lng":-0.1008326,"phone":"020 86804044"},{"id":"uk-92015","storeNum":"92015","name":"Doncaster - Frenchgate","address":"Frenchgate Shopping Centre","city":"Doncaster","state":"","zip":"DN1 1SW","country":"GB","lat":53.5233082,"lng":-1.1391817,"phone":"01302 320181"},{"id":"uk-93002","storeNum":"93002","name":"Poole - High Street","address":"141 High Street","city":"Dorset","state":"","zip":"BH15 1AS","country":"GB","lat":50.716264,"lng":-1.98337,"phone":"012026 82543"},{"id":"uk-90002","storeNum":"90002","name":"Basildon - Eastgate Shopping Centre","address":"Unit 4 The Food Terrace","city":"Essex","state":"","zip":"SS14 1EB","country":"GB","lat":51.56916,"lng":0.460414,"phone":"01268 526471"},{"id":"uk-90001","storeNum":"90001","name":"Thurrock - Lakeside Shopping Centre","address":"West Thurrock Grays","city":"Essex","state":"","zip":"RM20 2ZP","country":"GB","lat":51.487391,"lng":0.283774,"phone":"01708 890196"},{"id":"uk-90004","storeNum":"90004","name":"Colchester - Head Street","address":"Colchester","city":"Essex,","state":"","zip":"CO1 1NY","country":"GB","lat":51.889351,"lng":0.8964347,"phone":"01206 562896"},{"id":"uk-93009","storeNum":"93009","name":"London - Fulham","address":"53 Fulham Broadway","city":"Fulham","state":"","zip":"SW6 1AE","country":"GB","lat":51.4802554,"lng":-0.1981579,"phone":"020 73816562"},{"id":"uk-94000","storeNum":"94000","name":"Glasgow - Sauchiehall Street","address":"245 Sauchiehall Street","city":"Glasgow","state":"","zip":"G2 3EZ","country":"GB","lat":55.865151,"lng":-4.262347,"phone":"0141 332 6221"},{"id":"uk-94002","storeNum":"94002","name":"Great Yarmouth","address":"114a Regent Road","city":"Great Yarmouth","state":"","zip":"NR30 2AB","country":"GB","lat":52.6069897,"lng":1.7287022,"phone":"01493 857498"},{"id":"uk-93010","storeNum":"93010","name":"London - Hammersmith","address":"100 King Street","city":"Hammersmith","state":"","zip":"W6 0QW","country":"GB","lat":51.4924754,"lng":-0.2307838,"phone":"020 8748 9403"},{"id":"uk-94003","storeNum":"94003","name":"Irvine - Riverway Retail Park","address":"Riverway Retail Park","city":"Irvine","state":"","zip":"KA12 8AG","country":"GB","lat":55.6098813,"lng":-4.6732783,"phone":"01294 274838"},{"id":"uk-92012","storeNum":"92012","name":"Liverpool - Bold Street","address":"8 Bold Street","city":"Liverpool","state":"","zip":"L1 4DS","country":"GB","lat":53.404379,"lng":-2.98125,"phone":"01517 095096"},{"id":"uk-91001","storeNum":"91001","name":"Manchester - Arndale centre","address":"Kiosk 5 The Food Court","city":"Manchester","state":"","zip":"M4 3AQ","country":"GB","lat":53.482547,"lng":-2.243178,"phone":"01618 320876"},{"id":"uk-92014","storeNum":"92014","name":"Manchester - Deansgate","address":"45 Deansgate","city":"Manchester","state":"","zip":"M3 2AY","country":"GB","lat":53.4829,"lng":-2.2462,"phone":"0161 839 8373"},{"id":"uk-92016","storeNum":"92016","name":"Newcastle - Grainger - Street","address":"84 Grainger Street","city":"Newcastle","state":"","zip":"NE1 5JQ","country":"GB","lat":54.9719234,"lng":-1.6166719,"phone":"01912 301309"},{"id":"uk-92005","storeNum":"92005","name":"Nottingham - Angel Row","address":"9 Angel Row","city":"Nottingham","state":"","zip":"NG1 6HL","country":"GB","lat":52.953654,"lng":-1.1526978,"phone":"0115 958 2029"},{"id":"uk-93007","storeNum":"93007","name":"Poole - Tower Park","address":"Unit 2, Tower Park Leisure Complex","city":"Poole","state":"","zip":"BH12 4NY","country":"GB","lat":50.7463354,"lng":-1.9701363,"phone":"01202 741065"},{"id":"uk-93011","storeNum":"93011","name":"Portsmouth - Commercial Road","address":"227 Commercial Road","city":"Portsmouth","state":"","zip":"PO1 4BJ","country":"GB","lat":50.8027796,"lng":-1.0899881,"phone":"2392827708"},{"id":"uk-92008","storeNum":"92008","name":"Rotherham - Fitzwilliam","address":"Sycamore Road","city":"Rotherham","state":"","zip":"S65 1EN","country":"GB","lat":53.442314,"lng":-1.324262,"phone":"01709 830808"},{"id":"uk-92007","storeNum":"92007","name":"Sheffield - Broughton Lane","address":"Broughton Lane","city":"Sheffield","state":"","zip":"S9 2DD","country":"GB","lat":53.399946,"lng":-1.418745,"phone":"01142 619499"},{"id":"uk-93001","storeNum":"93001","name":"Southampton - Hanover Buildings","address":"1/2 Hanover Buildings","city":"Southampton","state":"","zip":"SO14 1JU","country":"GB","lat":50.903205,"lng":-1.403569,"phone":"023 8023 2037"},{"id":"uk-92009","storeNum":"92009","name":"Rotherham - Manvers Way","address":"Rotherham\nUnit C,","city":"Wath Upon Dearne","state":"","zip":"S63 7DQ","country":"GB","lat":53.511113,"lng":-1.358801,"phone":"01709 873140"},{"id":"uk-93004","storeNum":"93004","name":"Woking - Chertsey Road","address":"Taco Bell, 19-21","city":"Woking","state":"","zip":"Gu21 5ab","country":"GB","lat":51.319696,"lng":-0.55616,"phone":"01483 757056"},{"id":"uk-92013","storeNum":"92013","name":"York - Monks Cross Drive","address":"Monks Cross Drive","city":"York","state":"","zip":"YO32 9GZ","country":"GB","lat":53.989291,"lng":-1.044735,"phone":"01904 655375"},{"id":"uk-93003","storeNum":"93003","name":"Chichester - Chichester Gate Leisure Park","address":"Unit R1B\nChichester Gate Leisure Park,","city":"Chichester","state":"West Sussex","zip":"PO19 8EL","country":"GB","lat":50.830347,"lng":-0.784353,"phone":"01243 537855"},{"id":"uk-92010","storeNum":"92010","name":"Leeds - St John's Centre","address":"Unit 1 & 1a\nUpper Mall,","city":"Leeds","state":"West Yorkshire","zip":"LS2 8LQ","country":"GB","lat":53.800223,"lng":-1.543812,"phone":"0113 243 5052"},{"id":"uk-92001","storeNum":"92001","name":"Sheffield - Ecclesall Road","address":"485 Ecclesall Road","city":"","state":"Yorkshire","zip":"S11 8PP","country":"GB","lat":53.36906,"lng":-1.495555,"phone":"0114 266 4672"},{"id":"uk-92002","storeNum":"92002","name":"Sheffield - Devonshire Street","address":"Unit 1-3 Eldon Court\n116 -","city":"Sheffield","state":"Yorkshire","zip":"S3 7SF","country":"GB","lat":53.379491,"lng":-1.477557,"phone":"0114 275 5486"},{"id":"us-021535","storeNum":"021535","name":"Taco Bell","address":"1231 Muldoon Road","city":"Anchorage","state":"AK","zip":"99504","country":"US","lat":61.2109668355,"lng":-149.7331389067,"phone":"+19079294393"},{"id":"us-015248","storeNum":"015248","name":"Taco Bell","address":"2351 E. 5th Ave","city":"Anchorage","state":"AK","zip":"99501","country":"US","lat":61.2179462696,"lng":-149.8359807692,"phone":"+19072583600"},{"id":"us-002181","storeNum":"002181","name":"Taco Bell","address":"2640 East Tudor Road","city":"Anchorage","state":"AK","zip":"99507","country":"US","lat":61.1804953644,"lng":-149.8312459011,"phone":"+19075622210"},{"id":"us-019282","storeNum":"019282","name":"Taco Bell","address":"939 West Northern Lights Blvd","city":"Anchorage","state":"AK","zip":"99503","country":"US","lat":61.1954649956,"lng":-149.9013238974,"phone":"+19072767820"},{"id":"us-034659","storeNum":"034659","name":"Taco Bell","address":"9000 Lake Otis Parkway Units 6 and 7","city":"Anchorage","state":"AK","zip":"99507","country":"US","lat":61.1389778868,"lng":-149.8350165056,"phone":"+19078681217"},{"id":"us-019953","storeNum":"019953","name":"Taco Bell","address":"8825 Old Seward Hwy","city":"Anchorage","state":"AK","zip":"99515","country":"US","lat":61.1405425439,"lng":-149.8629703567,"phone":"+19073448442"},{"id":"us-018131","storeNum":"018131","name":"Taco Bell","address":"Diamond Jewel Lake Center 9001 Jewel Lake Rd Ste 12","city":"Anchorage","state":"AK","zip":"99502","country":"US","lat":61.1383983722,"lng":-149.950508694,"phone":"+19072486117"},{"id":"us-005649","storeNum":"005649","name":"Taco Bell","address":"12130 Business Blvd","city":"Eagle River","state":"AK","zip":"99577","country":"US","lat":61.329952228,"lng":-149.5684306312,"phone":"+19076945614"},{"id":"us-002309","storeNum":"002309","name":"Taco Bell","address":"87 College Rd","city":"Fairbanks","state":"AK","zip":"99701","country":"US","lat":64.8529993751,"lng":-147.7138559437,"phone":"+19074523166"},{"id":"us-004913","storeNum":"004913","name":"Taco Bell","address":"1450 University Ave S","city":"Fairbanks","state":"AK","zip":"99709","country":"US","lat":64.8354896608,"lng":-147.8131266283,"phone":"+19074749526"},{"id":"us-031469","storeNum":"031469","name":"Taco Bell","address":"560 D Street","city":"Fort Richardson","state":"AK","zip":"99505","country":"US","lat":61.2579904868,"lng":-149.6738380308,"phone":"+19072221955"},{"id":"us-019454","storeNum":"019454","name":"Taco Bell","address":"209 N. Santa Claus Lane","city":"North Pole","state":"AK","zip":"99705","country":"US","lat":64.7563052738,"lng":-147.3541124927,"phone":"+19074905990"},{"id":"us-032200","storeNum":"032200","name":"Taco Bell","address":"755 West Rowland Memorial Way","city":"Palmer","state":"AK","zip":"99645","country":"US","lat":61.5993223605,"lng":-149.1275682864,"phone":"+19077071450"},{"id":"us-026041","storeNum":"026041","name":"Taco Bell","address":"1751 E Parks Highway","city":"Wasilla","state":"AK","zip":"99654","country":"US","lat":61.5766368118,"lng":-149.4057893838,"phone":"+19073767958"},{"id":"us-029134","storeNum":"029134","name":"Taco Bell","address":"450 Colonial Promenade Pkwy","city":"Alabaster","state":"AL","zip":"35007","country":"US","lat":33.2340075372,"lng":-86.8041310625,"phone":"+12056216676"},{"id":"us-029137","storeNum":"029137","name":"Taco Bell","address":"7959 Us Highway 431","city":"Albertville","state":"AL","zip":"35950","country":"US","lat":34.2800108428,"lng":-86.2170211831,"phone":"+12568789495"},{"id":"us-029107","storeNum":"029107","name":"Taco Bell","address":"3779 Highway 280","city":"Alexander City","state":"AL","zip":"35010","country":"US","lat":32.9272348785,"lng":-85.9629217304,"phone":"+12562349929"},{"id":"us-029970","storeNum":"029970","name":"Taco Bell","address":"254 West Bypass","city":"Andalusia","state":"AL","zip":"36420","country":"US","lat":31.3109690887,"lng":-86.4999791131,"phone":"+12512306928"},{"id":"us-038801","storeNum":"038801","name":"Taco Bell","address":"5550 McClellan Blvd","city":"Anniston","state":"AL","zip":"36206","country":"US","lat":33.7194216765,"lng":-85.8184511947,"phone":"+12564037746"},{"id":"us-040528","storeNum":"040528","name":"Taco Bell","address":"1264 N BRINDLEE MOUNTAIN PKWY","city":"Arab","state":"AL","zip":"35016","country":"US","lat":34.3389449642,"lng":-86.5029203933,"phone":"+12569608863"},{"id":"us-031808","storeNum":"031808","name":"Taco Bell","address":"1625 US Hwy 72 East","city":"Athens","state":"AL","zip":"35611","country":"US","lat":34.7825528674,"lng":-86.9356178946,"phone":"+12569985390"},{"id":"us-030271","storeNum":"030271","name":"Taco Bell","address":"1112 Jefferson St SE","city":"Athens","state":"AL","zip":"35611","country":"US","lat":34.7902589653,"lng":-86.9722485941,"phone":"+12562328181"},{"id":"us-030463","storeNum":"030463","name":"Taco Bell","address":"5920 Hwy 21","city":"Atmore","state":"AL","zip":"36502","country":"US","lat":31.1056591909,"lng":-87.4765623589,"phone":"+12513011245"},{"id":"us-024458","storeNum":"024458","name":"Taco Bell","address":"519 Cleveland Ave","city":"Attalla","state":"AL","zip":"35954","country":"US","lat":34.0177778148,"lng":-86.0782858601,"phone":"+12565385915"},{"id":"us-040910","storeNum":"040910","name":"Taco Bell","address":"1521 East Glenn Avenue","city":"Auburn","state":"AL","zip":"36830","country":"US","lat":32.6093,"lng":-85.4489,"phone":"+13342030603"},{"id":"us-029100","storeNum":"029100","name":"Taco Bell","address":"2027 S. College St.","city":"Auburn","state":"AL","zip":"36832","country":"US","lat":32.5665621995,"lng":-85.5012934518,"phone":"+13348261015"},{"id":"us-029071","storeNum":"029071","name":"Taco Bell","address":"271 S Gay St","city":"Auburn","state":"AL","zip":"36830","country":"US","lat":32.601766734,"lng":-85.4796547943,"phone":"+13348212017"},{"id":"us-040418","storeNum":"040418","name":"Taco Bell","address":"1365 N Donahue Drive","city":"Auburn","state":"AL","zip":"36830","country":"US","lat":32.6318,"lng":-85.4985,"phone":"+13342030206"},{"id":"us-023772","storeNum":"023772","name":"Taco Bell","address":"621 McMeans Ave","city":"Bay Minette","state":"AL","zip":"36507","country":"US","lat":30.8842928656,"lng":-87.7882783366,"phone":"+12515802344"},{"id":"us-029166","storeNum":"029166","name":"Taco Bell","address":"Colonial Promenade Tannehill 5050 Bond Boulevard","city":"Bessemer","state":"AL","zip":"35022","country":"US","lat":33.3334404305,"lng":-86.9958049844,"phone":"+12054261525"},{"id":"us-037153","storeNum":"037153","name":"Taco Bell","address":"1004 Academy Drive","city":"Bessemer","state":"AL","zip":"35022","country":"US","lat":33.36802,"lng":-87.004834,"phone":"+12057740450"},{"id":"us-029154","storeNum":"029154","name":"Taco Bell","address":"710 9th Ave N","city":"Bessemer","state":"AL","zip":"35020","country":"US","lat":33.3936765402,"lng":-86.9726799928,"phone":"+12054244867"},{"id":"us-036416","storeNum":"036416","name":"Taco Bell","address":"6806 Tattersall Way","city":"Birmingham","state":"AL","zip":"35242","country":"US","lat":33.4239206062,"lng":-86.6689165748,"phone":"+12055380339"},{"id":"us-029138","storeNum":"029138","name":"Taco Bell","address":"4623 Highway 280 S.","city":"Birmingham","state":"AL","zip":"35242","country":"US","lat":33.4293244452,"lng":-86.7075707795,"phone":"+12059915192"},{"id":"us-040114","storeNum":"040114","name":"Taco Bell","address":"4525 Valleydale Road","city":"Birmingham","state":"AL","zip":"35242","country":"US","lat":33.3842639532,"lng":-86.7362000415,"phone":"+16592870018"},{"id":"us-029168","storeNum":"029168","name":"Taco Bell","address":"1541 Montclair Road","city":"Birmingham","state":"AL","zip":"35210","country":"US","lat":33.5237717997,"lng":-86.7251076807,"phone":"+12059512794"},{"id":"us-029112","storeNum":"029112","name":"Taco Bell","address":"381 Palisades Blvd","city":"Birmingham","state":"AL","zip":"35209","country":"US","lat":33.4686093585,"lng":-86.8185736836,"phone":"+12058488147"},{"id":"us-030297","storeNum":"030297","name":"Taco Bell","address":"2124 7th Ave S","city":"Birmingham","state":"AL","zip":"35233","country":"US","lat":33.507321546,"lng":-86.7974075774,"phone":"+12055066190"},{"id":"us-029110","storeNum":"029110","name":"Taco Bell","address":"9509 Parkway East","city":"Birmingham","state":"AL","zip":"35215","country":"US","lat":33.5946066658,"lng":-86.6944312748,"phone":"+12058362476"},{"id":"us-029135","storeNum":"029135","name":"Taco Bell","address":"2300 Bessemer Rd.","city":"Birmingham","state":"AL","zip":"35208","country":"US","lat":33.4978612804,"lng":-86.8760009551,"phone":"+12057857223"},{"id":"us-029111","storeNum":"029111","name":"Taco Bell","address":"1101 Forestdale Blvd","city":"Birmingham","state":"AL","zip":"35214","country":"US","lat":33.5577719944,"lng":-86.8897342683,"phone":"+12057983903"},{"id":"us-029143","storeNum":"029143","name":"Taco Bell","address":"1040 US Highway 431","city":"Boaz","state":"AL","zip":"35957","country":"US","lat":34.2016182624,"lng":-86.1509778223,"phone":"+12565935761"},{"id":"us-031394","storeNum":"031394","name":"Taco Bell","address":"2150 Douglas Avenue","city":"Brewton","state":"AL","zip":"36426","country":"US","lat":31.1411762858,"lng":-87.0682123801,"phone":"+12518675539"},{"id":"us-041491","storeNum":"041491","name":"Taco Bell","address":"5005 Highway 31","city":"Calera","state":"AL","zip":"35040","country":"US","lat":33.1492436,"lng":-86.7482887,"phone":"+16592652875"},{"id":"us-035882","storeNum":"035882","name":"Taco Bell","address":"100 20th Ave NE","city":"Center Point","state":"AL","zip":"35215","country":"US","lat":33.6386898231,"lng":-86.6834327554,"phone":"+12056245520"},{"id":"us-031776","storeNum":"031776","name":"Taco Bell","address":"1545 Chestnut Bypass","city":"Centre","state":"AL","zip":"35960","country":"US","lat":34.1594679556,"lng":-85.704645531,"phone":"+12569278226"},{"id":"us-029133","storeNum":"029133","name":"Taco Bell","address":"16778 Hwy. 280","city":"Chelsea","state":"AL","zip":"35043","country":"US","lat":33.3488057775,"lng":-86.6327683776,"phone":"+12056784548"},{"id":"us-029113","storeNum":"029113","name":"Taco Bell","address":"33458 Us Highway 280","city":"Childersburg","state":"AL","zip":"35044","country":"US","lat":33.2680920834,"lng":-86.3538869779,"phone":"+12563463300"},{"id":"us-029119","storeNum":"029119","name":"Taco Bell","address":"2047 7th St South","city":"Clanton","state":"AL","zip":"35045","country":"US","lat":32.8026874507,"lng":-86.5864145171,"phone":"+12057558822"},{"id":"us-036502","storeNum":"036502","name":"Taco Bell","address":"218 W. College Street","city":"Columbiana","state":"AL","zip":"35051","country":"US","lat":33.1803839672,"lng":-86.6129017866,"phone":"+12056109282"},{"id":"us-031580","storeNum":"031580","name":"Taco Bell","address":"TA #16 3501 Buttermilk Road","city":"Cottondale","state":"AL","zip":"35453","country":"US","lat":33.1762850872,"lng":-87.4472170335,"phone":"+12055540215"},{"id":"us-037155","storeNum":"037155","name":"Taco Bell","address":"1746 2nd Avenue SW","city":"Cullman","state":"AL","zip":"35055","country":"US","lat":34.1568406318,"lng":-86.8340304557,"phone":"+12567391889"},{"id":"us-029145","storeNum":"029145","name":"Taco Bell","address":"5961 AL Highway 157","city":"Cullman","state":"AL","zip":"35057","country":"US","lat":34.206697329,"lng":-86.8746433083,"phone":"+12567340990"},{"id":"us-036370","storeNum":"036370","name":"Taco Bell","address":"935 N Daleville Ave","city":"Daleville","state":"AL","zip":"36322","country":"US","lat":31.3201407557,"lng":-85.7109269698,"phone":"+13342458505"},{"id":"us-029156","storeNum":"029156","name":"Taco Bell","address":"1807 Beltline Rd SW","city":"Decatur","state":"AL","zip":"35601","country":"US","lat":34.5733322419,"lng":-87.01610603,"phone":"+12563500147"},{"id":"us-029158","storeNum":"029158","name":"Taco Bell","address":"2136 6th Ave SE","city":"Decatur","state":"AL","zip":"35601","country":"US","lat":34.5699366433,"lng":-86.9728146384,"phone":"+12563512326"},{"id":"us-034603","storeNum":"034603","name":"Taco Bell","address":"2928 Point Mallard Pkwy","city":"Decatur","state":"AL","zip":"35603","country":"US","lat":34.542082,"lng":-86.921693,"phone":"+12563081397"},{"id":"us-038733","storeNum":"038733","name":"Taco Bell","address":"100 US Highway 80 East","city":"Demopolis","state":"AL","zip":"36732","country":"US","lat":32.5028730648,"lng":-87.8383406688,"phone":"+13342896887"},{"id":"us-040113","storeNum":"040113","name":"Taco Bell","address":"3168 S Oates Street","city":"Dothan","state":"AL","zip":"36301","country":"US","lat":31.181111559,"lng":-85.4022917378,"phone":"+13347840284"},{"id":"us-036371","storeNum":"036371","name":"Taco Bell","address":"1087 Ross Clark Circle","city":"Dothan","state":"AL","zip":"36303","country":"US","lat":31.2171140825,"lng":-85.3605626742,"phone":"+13347024738"},{"id":"us-036369","storeNum":"036369","name":"Taco Bell","address":"3056 Ross Clark Cir","city":"Dothan","state":"AL","zip":"36301","country":"US","lat":31.2255041051,"lng":-85.4319147285,"phone":"+13347934965"},{"id":"us-037357","storeNum":"037357","name":"Taco Bell","address":"3927 Montgomery Hwy","city":"Dothan","state":"AL","zip":"36303","country":"US","lat":31.260314,"lng":-85.437275,"phone":"+13345005672"},{"id":"us-041188","storeNum":"041188","name":"Taco Bell","address":"3282 Reeves Street","city":"Dothan","state":"AL","zip":"36303","country":"US","lat":31.267431,"lng":-85.378863,"phone":"+13342458835"},{"id":"us-036372","storeNum":"036372","name":"Taco Bell","address":"602 Boll Weevil Circle","city":"Enterprise","state":"AL","zip":"36330","country":"US","lat":31.3156528025,"lng":-85.8296257758,"phone":"+13345236785"},{"id":"us-037704","storeNum":"037704","name":"Taco Bell","address":"1525 Temple Avenue N","city":"Fayette","state":"AL","zip":"35555","country":"US","lat":33.7056343631,"lng":-87.8254973359,"phone":"+16596669012"},{"id":"us-034248","storeNum":"034248","name":"Taco Bell","address":"503 S Court Street","city":"Florence","state":"AL","zip":"35630","country":"US","lat":34.7966241913,"lng":-87.6731331653,"phone":"+12563670773"},{"id":"us-030274","storeNum":"030274","name":"Taco Bell","address":"1412 N Wood Ave","city":"Florence","state":"AL","zip":"35630","country":"US","lat":34.8207448356,"lng":-87.6811883241,"phone":"+12567680308"},{"id":"us-036414","storeNum":"036414","name":"Taco Bell","address":"3040 Cloverdale Road","city":"Florence","state":"AL","zip":"35633","country":"US","lat":34.8482583154,"lng":-87.6894034791,"phone":"+12566484455"},{"id":"us-030270","storeNum":"030270","name":"Taco Bell","address":"2717 Florence Blvd","city":"Florence","state":"AL","zip":"35630","country":"US","lat":34.8306455019,"lng":-87.6270844013,"phone":"+12567646335"},{"id":"us-037355","storeNum":"037355","name":"Taco Bell","address":"1255 S McKenzie Street","city":"Foley","state":"AL","zip":"36535","country":"US","lat":30.3927726864,"lng":-87.6828412671,"phone":"+12513086106"},{"id":"us-027305","storeNum":"027305","name":"Taco Bell","address":"610 Glenn Blvd SW","city":"Fort Payne","state":"AL","zip":"35967","country":"US","lat":34.4359422364,"lng":-85.7396278245,"phone":"+12568457512"},{"id":"us-030296","storeNum":"030296","name":"Taco Bell","address":"1611 Morris Avenue","city":"Fultondale","state":"AL","zip":"35068","country":"US","lat":33.6083412261,"lng":-86.8020338016,"phone":"+12055366398"},{"id":"us-029140","storeNum":"029140","name":"Taco Bell","address":"523 Fieldstown Road","city":"Gardendale","state":"AL","zip":"35071","country":"US","lat":33.6520456625,"lng":-86.8197052119,"phone":"+12056318264"},{"id":"us-029117","storeNum":"029117","name":"Taco Bell","address":"1017 Ft Dale Road","city":"Greenville","state":"AL","zip":"36037","country":"US","lat":31.8538547374,"lng":-86.6415307924,"phone":"+13347081008"},{"id":"us-027321","storeNum":"027321","name":"Taco Bell","address":"1740 Gunter Ave","city":"Guntersville","state":"AL","zip":"35976","country":"US","lat":34.3414448938,"lng":-86.3093344527,"phone":"+12565827786"},{"id":"us-038833","storeNum":"038833","name":"Taco Bell","address":"42462 AL-195","city":"Haleyville","state":"AL","zip":"35565","country":"US","lat":34.2392613439,"lng":-87.5993595795,"phone":"+12054947660"},{"id":"us-029165","storeNum":"029165","name":"Taco Bell","address":"1746 Military St S","city":"Hamilton","state":"AL","zip":"35570","country":"US","lat":34.1187530419,"lng":-87.9900497148,"phone":"+12059210600"},{"id":"us-035465","storeNum":"035465","name":"Taco Bell","address":"702 Main St NE","city":"Hanceville","state":"AL","zip":"35077","country":"US","lat":34.070588,"lng":-86.775689,"phone":"+12567872170"},{"id":"us-037141","storeNum":"037141","name":"Taco Bell","address":"1409 Hwy 31 NW","city":"Hartselle","state":"AL","zip":"35640","country":"US","lat":34.45582,"lng":-86.94768,"phone":"+12567737000"},{"id":"us-037461","storeNum":"037461","name":"Taco Bell","address":"5809 Highway 53","city":"Harvest","state":"AL","zip":"35749","country":"US","lat":34.8437795662,"lng":-86.711692779,"phone":"+12568868890"},{"id":"us-029167","storeNum":"029167","name":"Taco Bell","address":"4804 Highway 52 W","city":"Helena","state":"AL","zip":"35080","country":"US","lat":33.2819951029,"lng":-86.8537289964,"phone":"+12056642804"},{"id":"us-037526","storeNum":"037526","name":"Taco Bell","address":"159 State Farm Parkway","city":"Homewood","state":"AL","zip":"35209","country":"US","lat":33.4497197583,"lng":-86.8221198016,"phone":"+12052010940"},{"id":"us-039116","storeNum":"039116","name":"Taco Bell","address":"1553 Montgomery Highway","city":"Hoover","state":"AL","zip":"35216","country":"US","lat":33.4063159319,"lng":-86.8057281038,"phone":"+12056240952"},{"id":"us-029153","storeNum":"029153","name":"Taco Bell","address":"Riverchase Village Center 1821 Montgomery Highway","city":"Hoover","state":"AL","zip":"35244","country":"US","lat":33.3755154309,"lng":-86.8021889452,"phone":"+12057332015"},{"id":"us-037008","storeNum":"037008","name":"Taco Bell","address":"5622 Grove Blvd","city":"Hoover","state":"AL","zip":"35226","country":"US","lat":33.3584832448,"lng":-86.8530499791,"phone":"+12054849459"},{"id":"us-029141","storeNum":"029141","name":"Taco Bell","address":"3064 Warrior River Road","city":"Hueytown","state":"AL","zip":"35023","country":"US","lat":33.4505896811,"lng":-86.9845148784,"phone":"+12054918075"},{"id":"us-029161","storeNum":"029161","name":"Taco Bell","address":"950 Old Monrovia Rd NW","city":"Huntsville","state":"AL","zip":"35806","country":"US","lat":34.7385603849,"lng":-86.6618540262,"phone":"+12568373580"},{"id":"us-029159","storeNum":"029159","name":"Taco Bell","address":"4315 University Dr NW","city":"Huntsville","state":"AL","zip":"35816","country":"US","lat":34.7345479075,"lng":-86.6346083975,"phone":"+12567161112"},{"id":"us-029155","storeNum":"029155","name":"Taco Bell","address":"2885 Memorial Pkwy.","city":"Huntsville","state":"AL","zip":"35810","country":"US","lat":34.761089114,"lng":-86.5911249149,"phone":"+12568591241"},{"id":"us-029162","storeNum":"029162","name":"Taco Bell","address":"2015 Whitesburg Dr. S","city":"Huntsville","state":"AL","zip":"35801","country":"US","lat":34.7191835043,"lng":-86.5783942965,"phone":"+12565349211"},{"id":"us-029146","storeNum":"029146","name":"Taco Bell","address":"1030 Airport Rd","city":"Huntsville","state":"AL","zip":"35802","country":"US","lat":34.6910659704,"lng":-86.5795459381,"phone":"+12568807006"},{"id":"us-037193","storeNum":"037193","name":"Taco Bell","address":"11300 Memorial Pkwy SW","city":"Huntsville","state":"AL","zip":"35803","country":"US","lat":34.6237849349,"lng":-86.5678586341,"phone":"+12568813855"},{"id":"us-037128","storeNum":"037128","name":"Taco Bell","address":"7208 Bailey Cove Rd SE","city":"Huntsville","state":"AL","zip":"35802","country":"US","lat":34.6706377673,"lng":-86.5398334698,"phone":"+12563846921"},{"id":"us-035213","storeNum":"035213","name":"Taco Bell","address":"1638 Hwy 72 E","city":"Huntsville","state":"AL","zip":"35811","country":"US","lat":34.7729465271,"lng":-86.5347100284,"phone":"+12562033196"},{"id":"us-034824","storeNum":"034824","name":"Taco Bell","address":"2150 Winchester Road","city":"Huntsville","state":"AL","zip":"35811","country":"US","lat":34.8164834028,"lng":-86.4940038039,"phone":"+12566664450"},{"id":"us-037486","storeNum":"037486","name":"Taco Bell","address":"4623 Grantswood Road","city":"Irondale","state":"AL","zip":"35210","country":"US","lat":33.5264644638,"lng":-86.6642304819,"phone":"+12055022999"},{"id":"us-036938","storeNum":"036938","name":"Taco Bell","address":"3625 N College Ave","city":"Jackson","state":"AL","zip":"36545","country":"US","lat":31.5485170305,"lng":-87.8795575405,"phone":"+12513205050"},{"id":"us-029160","storeNum":"029160","name":"Taco Bell","address":"1611 Pelham Road S.","city":"Jacksonville","state":"AL","zip":"36265","country":"US","lat":33.7884797848,"lng":-85.7619217805,"phone":"+12564358403"},{"id":"us-029136","storeNum":"029136","name":"Taco Bell","address":"508 Hwy #78 West","city":"Jasper","state":"AL","zip":"35501","country":"US","lat":33.8493544022,"lng":-87.281169468,"phone":"+12052212336"},{"id":"us-029120","storeNum":"029120","name":"Taco Bell","address":"1801 Ashville Rd","city":"Leeds","state":"AL","zip":"35094","country":"US","lat":33.5610520458,"lng":-86.5219989273,"phone":"+12056993300"},{"id":"us-027319","storeNum":"027319","name":"Taco Bell","address":"8860 Highway 20","city":"Madison","state":"AL","zip":"35758","country":"US","lat":34.677893,"lng":-86.749953,"phone":"+12567728055"},{"id":"us-029152","storeNum":"029152","name":"Taco Bell","address":"7940 Highway 72 West","city":"Madison","state":"AL","zip":"35758","country":"US","lat":34.7533129987,"lng":-86.7472205127,"phone":"+12567211312"},{"id":"us-036937","storeNum":"036937","name":"Taco Bell","address":"1235 AL-14","city":"Millbrook","state":"AL","zip":"36054","country":"US","lat":32.4937883883,"lng":-86.4048365346,"phone":"+13346498050"},{"id":"us-023770","storeNum":"023770","name":"Taco Bell","address":"7730 Airport Blvd","city":"Mobile","state":"AL","zip":"36608","country":"US","lat":30.6842290147,"lng":-88.2234511963,"phone":"+12516077077"},{"id":"us-023766","storeNum":"023766","name":"Taco Bell","address":"6301 Cottage Hill Road","city":"Mobile","state":"AL","zip":"36609","country":"US","lat":30.6400865458,"lng":-88.1868910506,"phone":"+12516668779"},{"id":"us-023768","storeNum":"023768","name":"Taco Bell","address":"5392 Hwy 90 West","city":"Mobile","state":"AL","zip":"36619","country":"US","lat":30.5908336437,"lng":-88.1700763228,"phone":"+12516660014"},{"id":"us-026246","storeNum":"026246","name":"Taco Bell","address":"3843 Airport Blvd","city":"Mobile","state":"AL","zip":"36608","country":"US","lat":30.6755844488,"lng":-88.1424799468,"phone":"+12513411836"},{"id":"us-023771","storeNum":"023771","name":"Taco Bell","address":"5000 Moffett Rd","city":"Mobile","state":"AL","zip":"36618","country":"US","lat":30.7206842034,"lng":-88.157610682,"phone":"+12513431132"},{"id":"us-023756","storeNum":"023756","name":"Taco Bell","address":"1115 Government St","city":"Mobile","state":"AL","zip":"36604","country":"US","lat":30.6837183614,"lng":-88.0609095466,"phone":"+12514338226"},{"id":"us-033445","storeNum":"033445","name":"Taco Bell","address":"915 Main St.","city":"Montevallo","state":"AL","zip":"35115","country":"US","lat":33.1019435644,"lng":-86.8609047487,"phone":"+12056655605"},{"id":"us-036488","storeNum":"036488","name":"Taco Bell","address":"8801 Eastchase Parkway","city":"Montgomery","state":"AL","zip":"36117","country":"US","lat":32.3650503898,"lng":-86.1413471736,"phone":"+13344092002"},{"id":"us-037192","storeNum":"037192","name":"Taco Bell","address":"8020 Vaughn Road","city":"Montgomery","state":"AL","zip":"36116","country":"US","lat":32.338359337,"lng":-86.175579948,"phone":"+13346256205"},{"id":"us-036482","storeNum":"036482","name":"Taco Bell","address":"5380 Atlanta Hwy","city":"Montgomery","state":"AL","zip":"36109","country":"US","lat":32.3813192189,"lng":-86.2156952917,"phone":"+13342727219"},{"id":"us-036485","storeNum":"036485","name":"Taco Bell","address":"5163 Carmichael Rd","city":"Montgomery","state":"AL","zip":"36106","country":"US","lat":32.3601643025,"lng":-86.2174107921,"phone":"+13342307622"},{"id":"us-040783","storeNum":"040783","name":"Taco Bell","address":"2575 Cong W L Dickinson Drive","city":"Montgomery","state":"AL","zip":"36109","country":"US","lat":32.4190984578,"lng":-86.2323667347,"phone":"+13343807128"},{"id":"us-036484","storeNum":"036484","name":"Taco Bell","address":"2695 Zelda Rd","city":"Montgomery","state":"AL","zip":"36107","country":"US","lat":32.3642611327,"lng":-86.2667828393,"phone":"+13342441500"},{"id":"us-036487","storeNum":"036487","name":"Taco Bell","address":"921 West South Blvd","city":"Montgomery","state":"AL","zip":"36105","country":"US","lat":32.3259182656,"lng":-86.3269222749,"phone":"+13342848404"},{"id":"us-027323","storeNum":"027323","name":"Taco Bell","address":"11880 AL Highway 157","city":"Moulton","state":"AL","zip":"35650","country":"US","lat":34.4877127458,"lng":-87.2756973942,"phone":"+12569740888"},{"id":"us-030269","storeNum":"030269","name":"Taco Bell","address":"2100 Woodward Ave","city":"Muscle Shoals","state":"AL","zip":"35661","country":"US","lat":34.7415126991,"lng":-87.6680659002,"phone":"+12563860846"},{"id":"us-029115","storeNum":"029115","name":"Taco Bell","address":"1880 Mcfarland Blvd","city":"Northport","state":"AL","zip":"35476","country":"US","lat":33.2396401889,"lng":-87.5761018217,"phone":"+12053396640"},{"id":"us-037341","storeNum":"037341","name":"Taco Bell","address":"1250 Mitt Lary Rd.","city":"Northport","state":"AL","zip":"35475","country":"US","lat":33.301792738,"lng":-87.5714047721,"phone":"+12052595293"},{"id":"us-027322","storeNum":"027322","name":"Taco Bell","address":"609 2nd Ave E","city":"Oneonta","state":"AL","zip":"35121","country":"US","lat":33.9490999885,"lng":-86.4709446182,"phone":"+12056255006"},{"id":"us-030451","storeNum":"030451","name":"Taco Bell","address":"1300 Columbus Parkway","city":"Opelika","state":"AL","zip":"36804","country":"US","lat":32.6440181751,"lng":-85.3481668266,"phone":"+13347376470"},{"id":"us-029082","storeNum":"029082","name":"Taco Bell","address":"2400 Pepperell Pkwy","city":"Opelika","state":"AL","zip":"36801","country":"US","lat":32.6387203963,"lng":-85.4115416778,"phone":"+13347490770"},{"id":"us-036516","storeNum":"036516","name":"Taco Bell","address":"6706 US Highway 431","city":"Owens Cross Roads","state":"AL","zip":"35763","country":"US","lat":34.657615,"lng":-86.483147,"phone":"+12565334384"},{"id":"us-040780","storeNum":"040780","name":"Taco Bell","address":"41 Commons Way","city":"Oxford","state":"AL","zip":"36203","country":"US","lat":33.606317,"lng":-85.786963,"phone":"+12564037119"},{"id":"us-029147","storeNum":"029147","name":"Taco Bell","address":"504 Hamric Dr E","city":"Oxford","state":"AL","zip":"36203","country":"US","lat":33.6082064606,"lng":-85.830035595,"phone":"+12568311629"},{"id":"us-029118","storeNum":"029118","name":"Taco Bell","address":"101 Cahaba Valley Pkwy","city":"Pelham","state":"AL","zip":"35124","country":"US","lat":33.3352421524,"lng":-86.7842637225,"phone":"+12059859625"},{"id":"us-036403","storeNum":"036403","name":"Taco Bell","address":"511 Martin St N","city":"Pell City","state":"AL","zip":"35125","country":"US","lat":33.5932119392,"lng":-86.2832310223,"phone":"+12058120134"},{"id":"us-029081","storeNum":"029081","name":"Taco Bell","address":"2059 Highway 280","city":"Phenix City","state":"AL","zip":"36867","country":"US","lat":32.4820688982,"lng":-85.0317503585,"phone":"+13344809703"},{"id":"us-037370","storeNum":"037370","name":"Taco Bell","address":"101 Compromise Court","city":"Phenix City","state":"AL","zip":"36870","country":"US","lat":32.4699202418,"lng":-85.0850046616,"phone":"+13343840850"},{"id":"us-036519","storeNum":"036519","name":"Taco Bell","address":"6650 Highway 75","city":"Pinson","state":"AL","zip":"35126","country":"US","lat":33.6965319867,"lng":-86.6821091896,"phone":"+12056801222"},{"id":"us-035455","storeNum":"035455","name":"Taco Bell","address":"6726 Deerfoot Parkway","city":"Pinson","state":"AL","zip":"35126","country":"US","lat":33.6969407202,"lng":-86.6068003522,"phone":"+12056838780"},{"id":"us-036483","storeNum":"036483","name":"Taco Bell","address":"411 S Memorial Dr","city":"Prattville","state":"AL","zip":"36067","country":"US","lat":32.4621110087,"lng":-86.4503161294,"phone":"+13343655800"},{"id":"us-027310","storeNum":"027310","name":"Taco Bell","address":"71 McCurdy Ave N","city":"Rainsville","state":"AL","zip":"35986","country":"US","lat":34.49511,"lng":-85.847237,"phone":"+12566382622"},{"id":"us-032206","storeNum":"032206","name":"Taco Bell","address":"3221 Hwy 431","city":"Roanoke","state":"AL","zip":"36274","country":"US","lat":33.1513808016,"lng":-85.3598231324,"phone":"+12564195455"},{"id":"us-036413","storeNum":"036413","name":"Taco Bell","address":"16391 Hwy 72","city":"Rogersville","state":"AL","zip":"35652","country":"US","lat":34.8239836143,"lng":-87.2913409639,"phone":"+12566073660"},{"id":"us-037190","storeNum":"037190","name":"Taco Bell","address":"13831 U.S. 43","city":"Russellville","state":"AL","zip":"35653","country":"US","lat":34.4950768106,"lng":-87.7259045394,"phone":"+12563319935"},{"id":"us-023764","storeNum":"023764","name":"Taco Bell","address":"827 Hwy 43 S","city":"Saraland","state":"AL","zip":"36571","country":"US","lat":30.8024484152,"lng":-88.0724267238,"phone":"+12516750099"},{"id":"us-030272","storeNum":"030272","name":"Taco Bell","address":"308 County Park Rd","city":"Scottsboro","state":"AL","zip":"35768","country":"US","lat":34.6485927408,"lng":-86.0335600676,"phone":"+12562591473"},{"id":"us-036481","storeNum":"036481","name":"Taco Bell","address":"303 W Highland Ave","city":"Selma","state":"AL","zip":"36701","country":"US","lat":32.4316783873,"lng":-87.0353772872,"phone":"+13348726034"},{"id":"us-041819","storeNum":"041819","name":"Taco Bell","address":"1560 Highway 77","city":"Southside","state":"AL","zip":"35907","country":"US","lat":33.931,"lng":-86.0245000001,"phone":"+12564398385"},{"id":"us-024984","storeNum":"024984","name":"Taco Bell","address":"30500-F State Hwy 181","city":"Spanish Fort","state":"AL","zip":"36527","country":"US","lat":30.6706660387,"lng":-87.8516447012,"phone":"+12516266977"},{"id":"us-029622","storeNum":"029622","name":"Taco Bell","address":"64 Springville Station Blvd","city":"Springville","state":"AL","zip":"35146","country":"US","lat":33.7785454055,"lng":-86.4306005415,"phone":"+12054672426"},{"id":"us-041685","storeNum":"041685","name":"Taco Bell","address":"38 MCS Boulevard","city":"Sylacauga","state":"AL","zip":"35150","country":"US","lat":33.1715584091,"lng":-86.2821782065,"phone":"+12562075239"},{"id":"us-037105","storeNum":"037105","name":"Taco Bell","address":"206 Haynes St.","city":"Talladega","state":"AL","zip":"35160","country":"US","lat":33.439305,"lng":-86.082398,"phone":"+12563629200"},{"id":"us-040382","storeNum":"040382","name":"Taco Bell","address":"576 Gilmer Avenue","city":"Tallassee","state":"AL","zip":"36078","country":"US","lat":32.5439466362,"lng":-85.9054002522,"phone":"+13348125770"},{"id":"us-029114","storeNum":"029114","name":"Taco Bell","address":"1801 Pinson Valley Pkwy","city":"Tarrant","state":"AL","zip":"35217","country":"US","lat":33.5855313547,"lng":-86.7702257239,"phone":"+12058497464"},{"id":"us-029078","storeNum":"029078","name":"Taco Bell","address":"1116 Highway 231 S","city":"Troy","state":"AL","zip":"36081","country":"US","lat":31.7839251844,"lng":-85.9573011722,"phone":"+13345668970"},{"id":"us-037013","storeNum":"037013","name":"Taco Bell","address":"5950 Valley Rd","city":"Trussville","state":"AL","zip":"35173","country":"US","lat":33.639022,"lng":-86.615849,"phone":"+12056558050"},{"id":"us-029144","storeNum":"029144","name":"Taco Bell","address":"815 Skyland Blvd","city":"Tuscaloosa","state":"AL","zip":"35405","country":"US","lat":33.1676100502,"lng":-87.5245957738,"phone":"+12057581000"},{"id":"us-029150","storeNum":"029150","name":"Taco Bell","address":"236 15th Street","city":"Tuscaloosa","state":"AL","zip":"35401","country":"US","lat":33.1989179874,"lng":-87.5387506495,"phone":"+12057526962"},{"id":"us-029717","storeNum":"029717","name":"Taco Bell","address":"9050 Highway 69 S","city":"Tuscaloosa","state":"AL","zip":"35405","country":"US","lat":33.1233444675,"lng":-87.5513720579,"phone":"+12057522999"},{"id":"us-037460","storeNum":"037460","name":"Taco Bell","address":"1211 University Blvd","city":"Tuscaloosa","state":"AL","zip":"35401","country":"US","lat":33.2108658364,"lng":-87.5539252484,"phone":"+12056149800"},{"id":"us-029157","storeNum":"029157","name":"Taco Bell","address":"2610 Stillman Blvd.","city":"Tuscaloosa","state":"AL","zip":"35401","country":"US","lat":33.205417474,"lng":-87.5699770379,"phone":"+12057641768"},{"id":"us-029095","storeNum":"029095","name":"Taco Bell","address":"2903 20th Avenue","city":"Valley","state":"AL","zip":"36854","country":"US","lat":32.844775165,"lng":-85.1821730818,"phone":"+13342034789"},{"id":"us-037099","storeNum":"037099","name":"Taco Bell","address":"319 Cane Creek Rd","city":"Warrior","state":"AL","zip":"35180","country":"US","lat":33.8117201801,"lng":-86.8243861068,"phone":"+12055900133"},{"id":"us-036486","storeNum":"036486","name":"Taco Bell","address":"5903 Us Hwy 231","city":"Wetumpka","state":"AL","zip":"36092","country":"US","lat":32.5263874027,"lng":-86.2074598629,"phone":"+13345671845"},{"id":"us-029116","storeNum":"029116","name":"Taco Bell","address":"2463 US Highway 43","city":"Winfield","state":"AL","zip":"35594","country":"US","lat":33.9367470589,"lng":-87.8387708479,"phone":"+12054878874"},{"id":"us-005549","storeNum":"005549","name":"Taco Bell","address":"541 Highway 71 N","city":"Alma","state":"AR","zip":"72921","country":"US","lat":35.491982,"lng":-94.226372,"phone":"+14796323373"},{"id":"us-004133","storeNum":"004133","name":"Taco Bell","address":"121 Valley Rd","city":"Arkadelphia","state":"AR","zip":"71923","country":"US","lat":34.1799,"lng":-93.0712,"phone":"+18702465068"},{"id":"us-036718","storeNum":"036718","name":"Taco Bell","address":"3126 Pine Street","city":"Arkadelphia","state":"AR","zip":"71923","country":"US","lat":34.1181606596,"lng":-93.0965493687,"phone":"+18707090085"},{"id":"us-033494","storeNum":"033494","name":"Taco Bell","address":"118-132 US-167","city":"Bald Knob","state":"AR","zip":"72010","country":"US","lat":35.3239270217,"lng":-91.5618472671,"phone":"+15017242524"},{"id":"us-027035","storeNum":"027035","name":"Taco Bell","address":"1102 S Saint Louis St","city":"Batesville","state":"AR","zip":"72501","country":"US","lat":35.7683137149,"lng":-91.6413601255,"phone":"+18707937111"},{"id":"us-035891","storeNum":"035891","name":"Taco Bell","address":"1957 W Dewitt Henry Dr","city":"Beebe","state":"AR","zip":"72012","country":"US","lat":35.0695031103,"lng":-91.9072662726,"phone":"+15018825833"},{"id":"us-001745","storeNum":"001745","name":"Taco Bell","address":"1704 Military Rd","city":"Benton","state":"AR","zip":"72015","country":"US","lat":34.5804599325,"lng":-92.5739128755,"phone":"+15013154826"},{"id":"us-041153","storeNum":"041153","name":"Taco Bell","address":"2022 Highway 5 N.","city":"Benton","state":"AR","zip":"72019","country":"US","lat":34.611235,"lng":-92.531852,"phone":"+15015750767"},{"id":"us-021326","storeNum":"021326","name":"Taco Bell","address":"2801 SE 14th","city":"Bentonville","state":"AR","zip":"72712","country":"US","lat":36.3568481795,"lng":-94.1811379041,"phone":"+14792549530"},{"id":"us-039556","storeNum":"039556","name":"Taco Bell","address":"1200 SW Regional Airport Blvd","city":"Bentonville","state":"AR","zip":"72712","country":"US","lat":36.3361878323,"lng":-94.226012383,"phone":"+14799669946"},{"id":"us-004680","storeNum":"004680","name":"Taco Bell","address":"102 S Walton Blvd","city":"Bentonville","state":"AR","zip":"72712","country":"US","lat":36.3721392017,"lng":-94.2220309031,"phone":"+14792712399"},{"id":"us-039531","storeNum":"039531","name":"Taco Bell","address":"940 W Trimble Avenue","city":"Berryville","state":"AR","zip":"72616","country":"US","lat":36.3779508733,"lng":-93.5862412725,"phone":"+14792784713"},{"id":"us-039141","storeNum":"039141","name":"Taco Bell","address":"201 S Service Rd","city":"Blytheville","state":"AR","zip":"72315","country":"US","lat":35.927182,"lng":-89.875296,"phone":"+18707622310"},{"id":"us-031421","storeNum":"031421","name":"Taco Bell","address":"8039 Hwy 49 North","city":"Brookland","state":"AR","zip":"72417","country":"US","lat":35.9072988565,"lng":-90.5890722734,"phone":"+18703360775"},{"id":"us-004618","storeNum":"004618","name":"Taco Bell","address":"2211 N Reynolds Rd","city":"Bryant","state":"AR","zip":"72022","country":"US","lat":34.6154759795,"lng":-92.4987116283,"phone":"+15018470155"},{"id":"us-004720","storeNum":"004720","name":"Taco Bell","address":"1430 W Locust","city":"Cabot","state":"AR","zip":"72023","country":"US","lat":34.979373,"lng":-92.030445,"phone":"+15018430186"},{"id":"us-032705","storeNum":"032705","name":"Taco Bell","address":"1775 E. Centerton Blvd.","city":"Centerton","state":"AR","zip":"72719","country":"US","lat":36.3574922662,"lng":-94.2543894978,"phone":"+14797951170"},{"id":"us-016207","storeNum":"016207","name":"Taco Bell","address":"1014 Highway 65 Bus","city":"Clinton","state":"AR","zip":"72031","country":"US","lat":35.5996801893,"lng":-92.4621951702,"phone":"+15017456900"},{"id":"us-036397","storeNum":"036397","name":"Taco Bell","address":"2195 Dave Ward Drive","city":"Conway","state":"AR","zip":"72034","country":"US","lat":35.0697818717,"lng":-92.4560712072,"phone":"+15017644774"},{"id":"us-019847","storeNum":"019847","name":"Taco Bell","address":"2715 Prince Street","city":"Conway","state":"AR","zip":"72032","country":"US","lat":35.0918489467,"lng":-92.4676810039,"phone":"+15013277007"},{"id":"us-001734","storeNum":"001734","name":"Taco Bell","address":"205 E Oak Street","city":"Conway","state":"AR","zip":"72032","country":"US","lat":35.09127,"lng":-92.425782,"phone":"+15013295090"},{"id":"us-033379","storeNum":"033379","name":"Taco Bell","address":"200 Missouri Ave","city":"Corning","state":"AR","zip":"72422","country":"US","lat":36.4126906803,"lng":-90.5859707971,"phone":"+18708575700"},{"id":"us-029599","storeNum":"029599","name":"Taco Bell","address":"109 West First Avenue","city":"Crossett","state":"AR","zip":"71635","country":"US","lat":33.1351066899,"lng":-91.9627159757,"phone":"+18703641777"},{"id":"us-036451","storeNum":"036451","name":"Taco Bell","address":"820 North Lakeside Drive","city":"De Queen","state":"AR","zip":"71832","country":"US","lat":34.0445343511,"lng":-94.329805073,"phone":"+15012148927"},{"id":"us-034155","storeNum":"034155","name":"Taco Bell","address":"331 W. Main St.","city":"Farmington","state":"AR","zip":"72730","country":"US","lat":36.0378764361,"lng":-94.2556772355,"phone":"+14792673484"},{"id":"us-023195","storeNum":"023195","name":"Taco Bell","address":"176 East Joyce Blvd.","city":"Fayetteville","state":"AR","zip":"72703","country":"US","lat":36.1245972082,"lng":-94.1540627343,"phone":"+14792518013"},{"id":"us-019809","storeNum":"019809","name":"Taco Bell","address":"1878 N Crossover Rd","city":"Fayetteville","state":"AR","zip":"72701","country":"US","lat":36.0858687111,"lng":-94.1210986732,"phone":"+14794424778"},{"id":"us-023223","storeNum":"023223","name":"Taco Bell","address":"1147 North Colorado","city":"Fayetteville","state":"AR","zip":"72703","country":"US","lat":36.078849,"lng":-94.206959,"phone":"+14795216629"},{"id":"us-003943","storeNum":"003943","name":"Taco Bell","address":"2055 W Martin Luther King Blvd","city":"Fayetteville","state":"AR","zip":"72701","country":"US","lat":36.0553945161,"lng":-94.1891231218,"phone":"+14795212538"},{"id":"us-040651","storeNum":"040651","name":"Taco Bell","address":"1200 N Edgar Street","city":"Fordyce","state":"AR","zip":"71742","country":"US","lat":33.8243675077,"lng":-92.4260151553,"phone":"+18708904447"},{"id":"us-027037","storeNum":"027037","name":"Taco Bell","address":"2055 N Washington","city":"Forrest City","state":"AR","zip":"72335","country":"US","lat":35.0294686652,"lng":-90.7901149294,"phone":"+18706338371"},{"id":"us-002893","storeNum":"002893","name":"Taco Bell","address":"915 North Greenwood","city":"Fort Smith","state":"AR","zip":"72901","country":"US","lat":35.3857032966,"lng":-94.4036365626,"phone":"+14797830202"},{"id":"us-003997","storeNum":"003997","name":"Taco Bell","address":"7910 Rogers Ave","city":"Fort Smith","state":"AR","zip":"72903","country":"US","lat":35.3492312352,"lng":-94.3437224196,"phone":"+14794847534"},{"id":"us-002439","storeNum":"002439","name":"Taco Bell","address":"4910 Towson Avenue","city":"Fort Smith","state":"AR","zip":"72901","country":"US","lat":35.3368776222,"lng":-94.4231646803,"phone":"+14796469623"},{"id":"us-024980","storeNum":"024980","name":"Taco Bell","address":"9203 Highway 71 S","city":"Fort Smith","state":"AR","zip":"72916","country":"US","lat":35.295946,"lng":-94.386662,"phone":"+14796462173"},{"id":"us-037681","storeNum":"037681","name":"Taco Bell","address":"604 1st Avenue SE","city":"Gravette","state":"AR","zip":"72736","country":"US","lat":36.4169040209,"lng":-94.4527595067,"phone":"+14793231421"},{"id":"us-018019","storeNum":"018019","name":"Taco Bell","address":"4 N Broadview St","city":"Greenbrier","state":"AR","zip":"72058","country":"US","lat":35.2344166656,"lng":-92.3873723021,"phone":"+15016795358"},{"id":"us-030891","storeNum":"030891","name":"Taco Bell","address":"820 West Center","city":"Greenwood","state":"AR","zip":"72936","country":"US","lat":35.2170055794,"lng":-94.2696247712,"phone":"+14799961657"},{"id":"us-005117","storeNum":"005117","name":"Taco Bell","address":"1623 Highway 25B","city":"Heber Springs","state":"AR","zip":"72543","country":"US","lat":35.5087052052,"lng":-92.0289565522,"phone":"+15013627575"},{"id":"us-021495","storeNum":"021495","name":"Taco Bell","address":"4016 Central Ave","city":"Hot Springs","state":"AR","zip":"71913","country":"US","lat":34.4558361308,"lng":-93.0641295309,"phone":"+15016235610"},{"id":"us-003751","storeNum":"003751","name":"Taco Bell","address":"1100 Albert Pike","city":"Hot Springs","state":"AR","zip":"71913","country":"US","lat":34.4939087115,"lng":-93.0810797694,"phone":"+15013214395"},{"id":"us-040889","storeNum":"040889","name":"Taco Bell","address":"1716 Airport Road","city":"Hot Springs","state":"AR","zip":"71913","country":"US","lat":34.46529,"lng":-93.144988,"phone":"+15016510190"},{"id":"us-030894","storeNum":"030894","name":"Taco Bell","address":"141 E Grand Avenue","city":"Hot Springs","state":"AR","zip":"71901","country":"US","lat":34.5032,"lng":-93.0492,"phone":"+15016232947"},{"id":"us-036449","storeNum":"036449","name":"Taco Bell","address":"14211 Highway 412","city":"Huntsville","state":"AR","zip":"72740","country":"US","lat":36.1129934279,"lng":-93.7098365331,"phone":"+14793342315"},{"id":"us-037290","storeNum":"037290","name":"Taco Bell","address":"2000 John Harden Drive","city":"Jacksonville","state":"AR","zip":"72076","country":"US","lat":34.8851176285,"lng":-92.1125913359,"phone":"+15015968458"},{"id":"us-018272","storeNum":"018272","name":"Taco Bell","address":"1809 N 1st St","city":"Jacksonville","state":"AR","zip":"72076","country":"US","lat":34.8832,"lng":-92.1088,"phone":"+15019829172"},{"id":"us-040017","storeNum":"040017","name":"Taco Bell","address":"2100 S. Caraway Road","city":"Jonesboro","state":"AR","zip":"72401","country":"US","lat":35.8194930531,"lng":-90.6774702771,"phone":"+18709329039"},{"id":"us-040770","storeNum":"040770","name":"Taco Bell","address":"17116 Chenal Parkway","city":"Little Rock","state":"AR","zip":"72223","country":"US","lat":34.7607,"lng":-92.4535,"phone":"+15018599882"},{"id":"us-004565","storeNum":"004565","name":"Taco Bell","address":"9600 N Rodney Parham Rd","city":"Little Rock","state":"AR","zip":"72227","country":"US","lat":34.760712055,"lng":-92.3804003756,"phone":"+15012257074"},{"id":"us-016176","storeNum":"016176","name":"Taco Bell","address":"600 South Bowman Road","city":"Little Rock","state":"AR","zip":"72211","country":"US","lat":34.7487431984,"lng":-92.4077889954,"phone":"+15012247255"},{"id":"us-002737","storeNum":"002737","name":"Taco Bell","address":"1300 John Barrow Rd","city":"Little Rock","state":"AR","zip":"72205","country":"US","lat":34.7411687843,"lng":-92.3726911629,"phone":"+15012249004"},{"id":"us-030902","storeNum":"030902","name":"Taco Bell","address":"4424 Markham Road","city":"Little Rock","state":"AR","zip":"72205","country":"US","lat":34.7520466552,"lng":-92.3226635285,"phone":"+15016645161"},{"id":"us-040895","storeNum":"040895","name":"Taco Bell","address":"10611 Colonel Glenn Road","city":"Little Rock","state":"AR","zip":"72204","country":"US","lat":34.712311,"lng":-92.394778,"phone":"+15013133394"},{"id":"us-004368","storeNum":"004368","name":"Taco Bell","address":"8108 Geyer Springs Rd","city":"Little Rock","state":"AR","zip":"72209","country":"US","lat":34.6760286081,"lng":-92.3444109792,"phone":"+15015658784"},{"id":"us-017278","storeNum":"017278","name":"Taco Bell","address":"719 South Broadway","city":"Little Rock","state":"AR","zip":"72201","country":"US","lat":34.742134368,"lng":-92.276112752,"phone":"+15013751885"},{"id":"us-040011","storeNum":"040011","name":"Taco Bell","address":"207 South Bloomington Street","city":"Lowell","state":"AR","zip":"72745","country":"US","lat":36.2516926705,"lng":-94.1365144275,"phone":"+14797700948"},{"id":"us-004631","storeNum":"004631","name":"Taco Bell","address":"1601 Hwy 270, Ste #219","city":"Malvern","state":"AR","zip":"72104","country":"US","lat":34.3835709038,"lng":-92.8281105055,"phone":"+15013371266"},{"id":"us-029602","storeNum":"029602","name":"Taco Bell","address":"435 Highway 425 North","city":"Monticello","state":"AR","zip":"71655","country":"US","lat":33.6370613458,"lng":-91.8019813294,"phone":"+18703679229"},{"id":"us-031577","storeNum":"031577","name":"Taco Bell","address":"98 Medical Services Drive","city":"Morrilton","state":"AR","zip":"72110","country":"US","lat":35.1696358219,"lng":-92.7186522126,"phone":"+15012085884"},{"id":"us-041486","storeNum":"041486","name":"Taco Bell","address":"602 East Main Street","city":"Mountain View","state":"AR","zip":"72560","country":"US","lat":35.865837,"lng":-92.110367,"phone":"+15012706985"},{"id":"us-035473","storeNum":"035473","name":"Taco Bell","address":"1302 S. 4th Street","city":"Nashville","state":"AR","zip":"71852","country":"US","lat":33.9319383801,"lng":-93.8512847876,"phone":"+18704519616"},{"id":"us-005118","storeNum":"005118","name":"Taco Bell","address":"301 Highway 67 N","city":"Newport","state":"AR","zip":"72112","country":"US","lat":35.6081791729,"lng":-91.2522886413,"phone":"+18705234116"},{"id":"us-027494","storeNum":"027494","name":"Taco Bell","address":"11525 Maumelle Blvd","city":"North Little Rock","state":"AR","zip":"72113","country":"US","lat":34.8272164514,"lng":-92.3881270763,"phone":"+15018126796"},{"id":"us-021504","storeNum":"021504","name":"Taco Bell","address":"3900 McCain Blvd","city":"North Little Rock","state":"AR","zip":"72116","country":"US","lat":34.7911213911,"lng":-92.2293729889,"phone":"+15018126464"},{"id":"us-019990","storeNum":"019990","name":"Taco Bell","address":"901 E Broadway","city":"North Little Rock","state":"AR","zip":"72114","country":"US","lat":34.7562826373,"lng":-92.2578406235,"phone":"+15013725047"},{"id":"us-030901","storeNum":"030901","name":"Taco Bell","address":"2531 Highway 161","city":"North Little Rock","state":"AR","zip":"72117","country":"US","lat":34.7771695443,"lng":-92.2020675655,"phone":"+15019455760"},{"id":"us-030892","storeNum":"030892","name":"Taco Bell","address":"103 Airport Road","city":"Ozark","state":"AR","zip":"72949","country":"US","lat":35.5123000001,"lng":-93.8222,"phone":"+14796679095"},{"id":"us-027036","storeNum":"027036","name":"Taco Bell","address":"2525 W Kings Hwy","city":"Paragould","state":"AR","zip":"72450","country":"US","lat":36.060166872,"lng":-90.5195985456,"phone":"+18702368782"},{"id":"us-030890","storeNum":"030890","name":"Taco Bell","address":"1409 East Walnut","city":"Paris","state":"AR","zip":"72855","country":"US","lat":35.2922561736,"lng":-93.7169781671,"phone":"+14799638520"},{"id":"us-040497","storeNum":"040497","name":"Taco Bell","address":"179 Lee Town Road","city":"Pea Ridge","state":"AR","zip":"72751","country":"US","lat":36.4418623571,"lng":-94.1150620007,"phone":"+14794850311"},{"id":"us-029600","storeNum":"029600","name":"Taco Bell","address":"3501 Camden Rd","city":"Pine Bluff","state":"AR","zip":"71603","country":"US","lat":34.1939703983,"lng":-92.0584606223,"phone":"+18708796604"},{"id":"us-029597","storeNum":"029597","name":"Taco Bell","address":"2712 Olive St","city":"Pine Bluff","state":"AR","zip":"71601","country":"US","lat":34.2015223912,"lng":-92.0074679546,"phone":"+18705365600"},{"id":"us-032054","storeNum":"032054","name":"Taco Bell","address":"1611 Hwy 67 South","city":"Pocahontas","state":"AR","zip":"72455","country":"US","lat":36.2488323382,"lng":-90.959368379,"phone":"+18708100004"},{"id":"us-041485","storeNum":"041485","name":"Taco Bell","address":"1030 East Parks Street","city":"Prairie Grove","state":"AR","zip":"72753","country":"US","lat":35.978025,"lng":-94.298618,"phone":"+14794001130"},{"id":"us-003280","storeNum":"003280","name":"Taco Bell","address":"604 S 8th Street","city":"Rogers","state":"AR","zip":"72756","country":"US","lat":36.328581619,"lng":-94.1262365559,"phone":"+14796317484"},{"id":"us-023903","storeNum":"023903","name":"Taco Bell","address":"2080 Promenade","city":"Rogers","state":"AR","zip":"72756","country":"US","lat":36.3097453151,"lng":-94.1798664247,"phone":"+14799367386"},{"id":"us-026906","storeNum":"026906","name":"Taco Bell","address":"2513 W Beebe Capps Expy","city":"Searcy","state":"AR","zip":"72143","country":"US","lat":35.247056619,"lng":-91.7741100121,"phone":"+15012682246"},{"id":"us-002552","storeNum":"002552","name":"Taco Bell","address":"3307 E Race","city":"Searcy","state":"AR","zip":"72143","country":"US","lat":35.250013511,"lng":-91.6919724037,"phone":"+15012681709"},{"id":"us-038787","storeNum":"038787","name":"Taco Bell","address":"704 West Center Street","city":"Sheridan","state":"AR","zip":"72150","country":"US","lat":34.3074480398,"lng":-92.4081750743,"phone":"+15016211332"},{"id":"us-037318","storeNum":"037318","name":"Taco Bell","address":"9053 Highway 107","city":"Sherwood","state":"AR","zip":"72120","country":"US","lat":34.8389,"lng":-92.2369,"phone":"+15013928465"},{"id":"us-002401","storeNum":"002401","name":"Taco Bell","address":"7201 JFK Blvd","city":"Sherwood","state":"AR","zip":"72120","country":"US","lat":34.8206254778,"lng":-92.2331318858,"phone":"+15018353357"},{"id":"us-030893","storeNum":"030893","name":"Taco Bell","address":"8350 Warden Road","city":"Sherwood","state":"AR","zip":"72120","country":"US","lat":34.8304,"lng":-92.1831,"phone":"+15018355570"},{"id":"us-040894","storeNum":"040894","name":"Taco Bell","address":"4171 US-412","city":"Siloam Springs","state":"AR","zip":"72761","country":"US","lat":36.1812641116,"lng":-94.4983473791,"phone":"+14794853914"},{"id":"us-004285","storeNum":"004285","name":"Taco Bell","address":"1050 Hwy 412 W","city":"Siloam Springs","state":"AR","zip":"72761","country":"US","lat":36.1747844496,"lng":-94.5523892674,"phone":"+14795243920"},{"id":"us-035475","storeNum":"035475","name":"Taco Bell","address":"1728 East Robinson Avenue","city":"Springdale","state":"AR","zip":"72764","country":"US","lat":36.167265854,"lng":-94.1121891358,"phone":"+14797561354"},{"id":"us-003271","storeNum":"003271","name":"Taco Bell","address":"406 S. Thompson","city":"Springdale","state":"AR","zip":"72764","country":"US","lat":36.1819130043,"lng":-94.139112073,"phone":"+14797501737"},{"id":"us-039684","storeNum":"039684","name":"Taco Bell","address":"4183 Elm Springs Road","city":"Springdale","state":"AR","zip":"72762","country":"US","lat":36.1929460345,"lng":-94.1762751851,"phone":"+14793845498"},{"id":"us-016275","storeNum":"016275","name":"Taco Bell","address":"4322 West Sunset","city":"Springdale","state":"AR","zip":"72762","country":"US","lat":36.175571,"lng":-94.178321,"phone":"+14797512344"},{"id":"us-009571","storeNum":"009571","name":"Taco Bell","address":"512 W. 22nd Street","city":"Stuttgart","state":"AR","zip":"72160","country":"US","lat":34.4797356342,"lng":-91.5582545688,"phone":"+18706733071"},{"id":"us-037371","storeNum":"037371","name":"Taco Bell","address":"1119 East Henri De Tonti Blvd","city":"Tontitown","state":"AR","zip":"72770","country":"US","lat":36.1755602091,"lng":-94.2165847288,"phone":"+14793181518"},{"id":"us-030898","storeNum":"030898","name":"Taco Bell","address":"511 North Plaza Dr","city":"Van Buren","state":"AR","zip":"72956","country":"US","lat":35.4603,"lng":-94.3556,"phone":"+14794101851"},{"id":"us-003998","storeNum":"003998","name":"Taco Bell","address":"3003 Alma Hwy","city":"Van Buren","state":"AR","zip":"72956","country":"US","lat":35.4441551916,"lng":-94.3261801295,"phone":"+14794715309"},{"id":"us-032480","storeNum":"032480","name":"Taco Bell","address":"600 Hwy 67 B","city":"Walnut Ridge","state":"AR","zip":"72476","country":"US","lat":36.075716,"lng":-90.95427,"phone":"+18708094774"},{"id":"us-032034","storeNum":"032034","name":"Taco Bell","address":"761 North Sebastian Street","city":"West Helena","state":"AR","zip":"72390","country":"US","lat":34.554069,"lng":-90.654691,"phone":"+18705729937"},{"id":"us-035144","storeNum":"035144","name":"Taco Bell","address":"1209 N. Missouri St.","city":"West Memphis","state":"AR","zip":"72301","country":"US","lat":35.1604880457,"lng":-90.1843359924,"phone":"+18707355709"},{"id":"us-029604","storeNum":"029604","name":"Taco Bell","address":"8011 Sheridan Road","city":"White Hall","state":"AR","zip":"71602","country":"US","lat":34.2606646399,"lng":-92.1011546324,"phone":"+18702476977"},{"id":"us-037561","storeNum":"037561","name":"Taco Bell","address":"3659 W. Anthem Way","city":"Anthem","state":"AZ","zip":"85086","country":"US","lat":33.86611544,"lng":-112.1381359553,"phone":"+16234659573"},{"id":"us-041624","storeNum":"041624","name":"Taco Bell","address":"97 West Apache Trail","city":"Apache Junction","state":"AZ","zip":"85120","country":"US","lat":33.41311,"lng":-111.54723,"phone":"+14809820888"},{"id":"us-021187","storeNum":"021187","name":"Taco Bell","address":"1529 N Dysart Rd","city":"Avondale","state":"AZ","zip":"85323","country":"US","lat":33.4597042579,"lng":-112.3405843376,"phone":"+16235369800"},