{"generated":"2026-07-05","source":"All The Places (alltheplaces.xyz)","count":8951,"countries":{"US":8238,"CA":200,"ES":179,"GB":164,"IN":111,"AU":28,"FI":19,"PH":11,"NL":1},"locations":[{"id":"au-https-tacobell-com-au-albion-park","storeNum":"https://tacobell.com.au/","name":"Taco Bell Albion Park","address":"Shop 3, 61 Princes Highway, ALBION PARK NSW 2527","city":"","state":"","zip":"","country":"AU","lat":-34.55295510872227,"lng":150.7901661031089,"phone":"+61 2 4257 3673"},{"id":"au-https-tacobell-com-au-annerley","storeNum":"https://tacobell.com.au/","name":"Taco Bell Annerley","address":"594 Ipswich Road, Annerley QLD, 4103","city":"","state":"","zip":"","country":"AU","lat":-27.514796363187997,"lng":153.03116747763124,"phone":"+61 7 3848 4531"},{"id":"au-https-tacobell-com-au-ballina","storeNum":"https://tacobell.com.au/","name":"Taco Bell Ballina","address":"95 Fox Street, BALLINA NSW 2478","city":"","state":"","zip":"","country":"AU","lat":-28.859896407950366,"lng":153.55990007655893,"phone":"+61 2 5630 1377"},{"id":"au-https-tacobell-com-au-beenleigh","storeNum":"https://tacobell.com.au/","name":"Taco Bell Beenleigh","address":"151 George Street, Beenleigh QLD 4207","city":"","state":"","zip":"","country":"AU","lat":-27.716147056808218,"lng":153.20699928585765,"phone":"+61 7 2899 6625"},{"id":"au-https-tacobell-com-au-berwick-south","storeNum":"https://tacobell.com.au/","name":"Taco Bell Berwick South","address":"254 Clyde Road, Berwick South VIC 3806","city":"","state":"","zip":"","country":"AU","lat":-38.05660165277357,"lng":145.33866167144413,"phone":"+61 3 8902 7620"},{"id":"au-https-tacobell-com-au-blacktown-sports-park","storeNum":"https://tacobell.com.au/","name":"Taco Bell Blacktown Sports Park","address":"100 Eastern Road Rooty Hill, NSW 2766","city":"","state":"","zip":"","country":"AU","lat":-33.770915,"lng":150.85907,"phone":"+61 2 7204 7708"},{"id":"au-https-tacobell-com-au-butler","storeNum":"https://tacobell.com.au/","name":"Taco Bell Butler","address":"Tenancy 1, 40 Butler Boulevard, Butler WA 6036","city":"","state":"","zip":"","country":"AU","lat":-31.638863392486847,"lng":115.69504033932931,"phone":"+61 8 6207 3440"},{"id":"au-https-tacobell-com-au-canning-vale","storeNum":"https://tacobell.com.au/","name":"Taco Bell Canning Vale","address":"459 Nicholson Road, Canning Vale WA 6155","city":"","state":"","zip":"","country":"AU","lat":-32.06331600481783,"lng":115.93574169992701,"phone":"+61 8 9449 7010"},{"id":"au-https-tacobell-com-au-chatswood-interchange","storeNum":"https://tacobell.com.au/","name":"Taco Bell Chatswood Interchange","address":"11/436 Victoria Avenue, Chatswood NSW 2067","city":"","state":"","zip":"","country":"AU","lat":-33.79718408960323,"lng":151.1811128,"phone":"+61 2 7233 2554"},{"id":"au-https-tacobell-com-au-chirnside-park","storeNum":"https://tacobell.com.au/","name":"Taco Bell Chirnside Park","address":"266-268 Maroondah Highway, Chirnside Park, VIC, 3116","city":"","state":"","zip":"","country":"AU","lat":-37.764442673502195,"lng":145.30822562883517,"phone":"+61 3 7303 2310"},{"id":"au-https-tacobell-com-au-coomera-south","storeNum":"https://tacobell.com.au/","name":"Taco Bell Coomera South","address":"Cnr Foxwell Rd & Creek Rd, Coomera South 4209 | Opposite Westfield Coomera!, .","city":"","state":"","zip":"","country":"AU","lat":-27.85567252297444,"lng":153.31445574760437,"phone":"+61 7 5675 7635"},{"id":"au-https-tacobell-com-au-coorparoo","storeNum":"https://tacobell.com.au/","name":"Taco Bell Coorparoo","address":"208 Old Cleveland Road, Coorparoo QLD 4151","city":"","state":"","zip":"","country":"AU","lat":-27.496576820809377,"lng":153.054182,"phone":"+61 7 2899 6670"},{"id":"au-https-tacobell-com-au-dandenong-south","storeNum":"https://tacobell.com.au/","name":"Taco Bell Dandenong South","address":"1 Assembly Drive, Dandenong South, VIC 3175","city":"","state":"","zip":"","country":"AU","lat":-38.0038121348229,"lng":145.24810344963396,"phone":"+61 3 8902 7610"},{"id":"au-https-tacobell-com-au-east-ipswich","storeNum":"https://tacobell.com.au/","name":"Taco Bell East Ipswich","address":"70 Brisbane Road, East Ipswich QLD 4305","city":"","state":"","zip":"","country":"AU","lat":-27.612622039421638,"lng":152.78108579187318,"phone":"+61 7 3813 4005"},{"id":"au-https-tacobell-com-au-ellenbrook-north","storeNum":"https://tacobell.com.au/","name":"Taco Bell Ellenbrook North","address":"Lot 2 The Promenade, Ellenbrook, WA 6069","city":"","state":"","zip":"","country":"AU","lat":-31.78093475534595,"lng":115.97243278273348,"phone":"+61 8 6207 3425"},{"id":"au-https-tacobell-com-au-emerald-hills","storeNum":"https://tacobell.com.au/","name":"Taco Bell Emerald Hills","address":"5 Raby Road, Leppington NSW 2179","city":"","state":"","zip":"","country":"AU","lat":-33.99514341771991,"lng":150.7897898981267,"phone":"+61 2 7205 6040"},{"id":"au-https-tacobell-com-au-greensquare","storeNum":"https://tacobell.com.au/","name":"Taco Bell Greensquare","address":"103/305 Botany Road, ZETLAND NSW 2017","city":"","state":"","zip":"","country":"AU","lat":-33.90608692398403,"lng":151.20332036867794,"phone":"+61 2 7204 0650"},{"id":"au-https-tacobell-com-au-hawthorn","storeNum":"https://tacobell.com.au/","name":"Taco Bell Hawthorn","address":"650-652 Glenferrie Road, Hawthorn VIC 3122","city":"","state":"","zip":"","country":"AU","lat":-37.82183623104481,"lng":145.03600706327907,"phone":"+61 3 9825 8210"},{"id":"au-https-tacobell-com-au-haymarket","storeNum":"https://tacobell.com.au/","name":"Taco Bell Haymarket","address":"815 George Street, HAYMARKET NSW 2000","city":"","state":"","zip":"","country":"AU","lat":-33.882786,"lng":151.203416,"phone":"+61 2 7204 7730"},{"id":"au-https-tacobell-com-au-hoppers-crossing","storeNum":"https://tacobell.com.au/","name":"Taco Bell Hoppers Crossing","address":"88 Derrimut Road, Hoppers Crossing VIC 3029","city":"","state":"","zip":"","country":"AU","lat":-37.881102685502235,"lng":144.68261198288425,"phone":"+61 3 9825 8220"},{"id":"au-https-tacobell-com-au-jesmond","storeNum":"https://tacobell.com.au/","name":"Taco Bell Jesmond","address":"Shop 60, Stockland Jesmond Shopping Centre. 28 Blue Gum Road, JESMOND NSW 2299","city":"","state":"","zip":"","country":"AU","lat":-32.90272492509487,"lng":151.690343298633,"phone":"+61 2 4950 1035"},{"id":"au-https-tacobell-com-au-logan-central","storeNum":"https://tacobell.com.au/","name":"Taco Bell Logan Central","address":"26 Wembley Road, Logan Central QLD 4114","city":"","state":"","zip":"","country":"AU","lat":-27.642466289780682,"lng":153.1156421729609,"phone":"+61 7 2899 6605"},{"id":"au-https-tacobell-com-au-midland","storeNum":"https://tacobell.com.au/","name":"Taco Bell Midland","address":"226 Great Eastern Highway, Midland WA 6056","city":"","state":"","zip":"","country":"AU","lat":-31.8915,"lng":116.01452,"phone":"+61 8 6207 3415"},{"id":"au-https-tacobell-com-au-morayfield","storeNum":"https://tacobell.com.au/","name":"Taco Bell Morayfield","address":"182-190 Morayfield Road, Morayfield QLD 4506","city":"","state":"","zip":"","country":"AU","lat":-27.104934012769085,"lng":152.94696980795132,"phone":"+61 7 5294 9715"},{"id":"au-https-tacobell-com-au-north-lakes","storeNum":"https://tacobell.com.au/","name":"Taco Bell North Lakes","address":"Cnr 144 Flinders Parade & Diamond Jubilee Way, North Lakes QLD 4509","city":"","state":"","zip":"","country":"AU","lat":-27.21475781066594,"lng":152.99936282792513,"phone":"+61 7 3351 9505"},{"id":"au-https-tacobell-com-au-roxburghpark","storeNum":"https://tacobell.com.au/","name":"Taco Bell Roxburgh Park","address":"260 Somerton Rd, Roxburgh Park VIC 3064","city":"","state":"","zip":"","country":"AU","lat":-37.6407311,"lng":144.9297489,"phone":"+61 3 7303 2305"},{"id":"au-https-tacobell-com-au-south-yarra","storeNum":"https://tacobell.com.au/","name":"Taco Bell South Yarra","address":"352 Chapel Street, South Yarra VIC 3141","city":"","state":"","zip":"","country":"AU","lat":-37.846585619288376,"lng":144.9943679977639,"phone":"+61 3 9825 8205"},{"id":"au-https-tacobell-com-au-blacktown","storeNum":"https://tacobell.com.au/","name":"Taco Bell Westpoint Blacktown","address":"Level 3, Westpoint Shopping Centre, 17 Patrick Street, BLACKTOWN NSW 2148","city":"","state":"","zip":"","country":"AU","lat":-33.76973202420942,"lng":150.90657502866182,"phone":"+61 2 9621 1263"},{"id":"ca-https-locations-tacobell-ca-en-ab-calgary-751-3r","storeNum":"https://locations.tacobe","name":"Taco Bell","address":"751 3rd Street SW","city":"Calgary","state":"AB","zip":"T2P 4K8","country":"CA","lat":51.046119647878356,"lng":-114.07091994785142,"phone":"+1 403-263-0346"},{"id":"ca-https-locations-tacobell-ca-en-ab-calgary-12222-","storeNum":"https://locations.tacobe","name":"Taco Bell","address":"12222 Symons Valley Road NW","city":"Calgary","state":"AB","zip":"T3P 0A3","country":"CA","lat":51.16309618793664,"lng":-114.12674444288372,"phone":"+1 403-516-1582"},{"id":"ca-https-locations-tacobell-ca-en-ab-calgary-3310-3","storeNum":"https://locations.tacobe","name":"Taco Bell","address":"3310 32nd Street NE","city":"Calgary","state":"AB","zip":"T1Y 6B9","country":"CA","lat":51.081914784989536,"lng":-113.9882779726193,"phone":"+1 403-250-1842"},{"id":"ca-https-locations-tacobell-ca-en-ab-calgary-1595-3","storeNum":"https://locations.tacobe","name":"Taco Bell","address":"1595 32 Ave NE","city":"Calgary","state":"AB","zip":"T2E 8P5","country":"CA","lat":51.08113942575412,"lng":-114.0242446239252,"phone":"+1 403-230-0061"},{"id":"ca-https-locations-tacobell-ca-en-ab-cold-lake-6603","storeNum":"https://locations.tacobe","name":"Taco Bell","address":"6603 51st. Street","city":"Cold Lake","state":"AB","zip":"T9M 1C8","country":"CA","lat":54.432504900345116,"lng":-110.2061291515379,"phone":"+1 780-639-3270"},{"id":"ca-https-locations-tacobell-ca-en-ab-edmonton-14311","storeNum":"https://locations.tacobe","name":"Taco Bell","address":"14311 23rd Avenue","city":"Edmonton","state":"AB","zip":"T6R 3E7","country":"CA","lat":53.453705237588174,"lng":-113.56841117385291,"phone":"+1 780-988-8000"},{"id":"ca-https-locations-tacobell-ca-en-ab-edmonton-9260-","storeNum":"https://locations.tacobe","name":"Taco Bell","address":"9260 Ellerslie Road SW","city":"Edmonton","state":"AB","zip":"T6X 0K6","country":"CA","lat":53.42545873653651,"lng":-113.4766123376754,"phone":"+1 780-485-1474"},{"id":"ca-https-locations-tacobell-ca-en-ab-edmonton-9626-","storeNum":"https://locations.tacobe","name":"Taco Bell","address":"9626 160th Avenue East NW","city":"Edmonton","state":"AB","zip":"T5P 3C6","country":"CA","lat":53.62180962390483,"lng":-113.49098513067959,"phone":"+1 780-423-2714"},{"id":"ca-https-locations-tacobell-ca-en-ab-edmonton-8036-","storeNum":"https://locations.tacobe","name":"Taco Bell","address":"8036 118th Avenue","city":"Edmonton","state":"AB","zip":"T5B 0R8","country":"CA","lat":53.570694028270495,"lng":-113.46515597262953,"phone":"+1 780-944-1301"},{"id":"ca-https-locations-tacobell-ca-en-ab-edmonton-4950-","storeNum":"https://locations.tacobe","name":"Taco Bell","address":"4950 101st Avenue","city":"Edmonton","state":"AB","zip":"T6A 3Y1","country":"CA","lat":53.54161918192088,"lng":-113.41749821288013,"phone":"+1 780-448-3866"},{"id":"ca-https-locations-tacobell-ca-en-ab-edmonton-8730-","storeNum":"https://locations.tacobe","name":"Taco Bell","address":"8730 156 Street","city":"Edmonton","state":"AB","zip":"T5R 1Y5","country":"CA","lat":53.521033814991256,"lng":-113.59093801925657,"phone":"+1 780-448-3850"},{"id":"ca-https-locations-tacobell-ca-en-ab-edmonton-3349-","storeNum":"https://locations.tacobe","name":"Taco Bell","address":"3349 118th Avenue NW","city":"Edmonton","state":"AB","zip":"T5W 4X1","country":"CA","lat":53.56986494361775,"lng":-113.3933209504463,"phone":"+1 780-448-2621"},{"id":"ca-https-locations-tacobell-ca-en-ab-edmonton-3431-","storeNum":"https://locations.tacobe","name":"Taco Bell","address":"3431 Gateway Blvd, Building 6","city":"Edmonton","state":"AB","zip":"T6J 5V5","country":"CA","lat":53.471137,"lng":-113.4921172,"phone":"+1 587-490-4892"},{"id":"ca-https-locations-tacobell-ca-en-ab-fort-mcmurray-","storeNum":"https://locations.tacobe","name":"Taco Bell","address":"347 Powder Drive","city":"Fort McMurray","state":"AB","zip":"T9K 0M3","country":"CA","lat":56.75733188419882,"lng":-111.45610084467424,"phone":"+1 780-792-0013"},{"id":"ca-https-locations-tacobell-ca-en-ab-fort-saskatche","storeNum":"https://locations.tacobe","name":"Taco Bell","address":"10090 88th Avenue","city":"Fort Saskatchewan","state":"AB","zip":"T8L 2T2","country":"CA","lat":53.7006132851195,"lng":-113.20495122047994,"phone":"+1 780-998-4411"},{"id":"ca-https-locations-tacobell-ca-en-ab-grand-prairie-","storeNum":"https://locations.tacobe","name":"Taco Bell","address":"11509 Westgate Dr.","city":"Grand Prairie","state":"AB","zip":"T8V 3B1","country":"CA","lat":55.17126914935306,"lng":-118.84198418956662,"phone":"+1 780-402-3381"},{"id":"ca-https-locations-tacobell-ca-en-ab-lac-la-biche-1","storeNum":"https://locations.tacobe","name":"Taco Bell","address":"10003 101 Avenue","city":"Lac La Biche","state":"AB","zip":"T0A 2C0","country":"CA","lat":54.77144389690221,"lng":-111.97256095383692,"phone":"+1 780-623-7177"},{"id":"ca-https-locations-tacobell-ca-en-ab-leduc-5706-50t","storeNum":"https://locations.tacobe","name":"Taco Bell","address":"5706 50th Street","city":"Leduc","state":"AB","zip":"T9E 6J4","country":"CA","lat":53.272163754573185,"lng":-113.55182477607582,"phone":"+1 780-986-2502"},{"id":"ca-https-locations-tacobell-ca-en-ab-lethbridge-188","storeNum":"https://locations.tacobe","name":"Taco Bell","address":"188 Columbia Blvd. West","city":"Lethbridge","state":"AB","zip":"T1K 4J4","country":"CA","lat":49.67534631741639,"lng":-112.87564000046396,"phone":"+1 403-381-0244"},{"id":"ca-https-locations-tacobell-ca-en-ab-medicine-hat-1","storeNum":"https://locations.tacobe","name":"Taco Bell","address":"1071 Ross Glen Drive Southeast","city":"Medicine Hat","state":"AB","zip":"T1B 3T8","country":"CA","lat":50.002566216905855,"lng":-110.6428384202551,"phone":"+1 403-529-6703"},{"id":"ca-https-locations-tacobell-ca-en-ab-okotoks-200-so","storeNum":"https://locations.tacobe","name":"Taco Bell","address":"200 Southridge Drive","city":"Okotoks","state":"AB","zip":"T1S 0B2","country":"CA","lat":50.70752875254768,"lng":-113.97567948724729,"phone":"+1 403-938-1498"},{"id":"ca-https-locations-tacobell-ca-en-ab-red-deer-6889-","storeNum":"https://locations.tacobe","name":"Taco Bell","address":"6889 50th Avenue","city":"Red Deer","state":"AB","zip":"T4N 4E2","country":"CA","lat":52.295497479835056,"lng":-113.81299499842451,"phone":"+1 403-340-2700"},{"id":"ca-https-locations-tacobell-ca-en-ab-rocky-view-261","storeNum":"https://locations.tacobe","name":"Taco Bell","address":"261055 Crossiron Blvd","city":"Rocky View","state":"AB","zip":"T4A 0G3","country":"CA","lat":51.2028342,"lng":-113.9905198,"phone":"+1 403-274-5137"},{"id":"ca-https-locations-tacobell-ca-en-ab-sherwood-park-","storeNum":"https://locations.tacobe","name":"Taco Bell","address":"550 Baseline Road","city":"Sherwood Park","state":"AB","zip":"T8H 2G8","country":"CA","lat":53.5416383253628,"lng":-113.26872925349241,"phone":"+1 780-416-8145"},{"id":"ca-https-locations-tacobell-ca-en-ab-spruce-grove-1","storeNum":"https://locations.tacobe","name":"Taco Bell","address":"170 Hwy. 16A","city":"Spruce Grove","state":"AB","zip":"T7X 3X3","country":"CA","lat":53.541872266184185,"lng":-113.92732301925658,"phone":"+1 780-962-4822"},{"id":"ca-https-locations-tacobell-ca-en-ab-st-albert-371-","storeNum":"https://locations.tacobe","name":"Taco Bell","address":"371 St. Albert Trail","city":"St. Albert","state":"AB","zip":"T8N 0R1","country":"CA","lat":53.639405148338405,"lng":-113.6241848180332,"phone":"+1 780-458-7713"},{"id":"ca-https-locations-tacobell-ca-en-bc-coquitlam-2991","storeNum":"https://locations.tacobe","name":"Taco Bell","address":"2991 Lougheed Highway","city":"Coquitlam","state":"BC","zip":"V3B 6J6","country":"CA","lat":49.277967,"lng":-122.7951493,"phone":"+1 604-464-2025"},{"id":"ca-https-locations-tacobell-ca-en-bc-delta-8737-120","storeNum":"https://locations.tacobe","name":"Taco Bell","address":"8737 120 Street","city":"Delta","state":"BC","zip":"V4C 6R4","country":"CA","lat":49.16148617164972,"lng":-122.89100064723873,"phone":"+1 778-578-5062"},{"id":"ca-https-locations-tacobell-ca-en-bc-kamloops-555-n","storeNum":"https://locations.tacobe","name":"Taco Bell","address":"555 Notre Dame Drive","city":"Kamloops","state":"BC","zip":"V2C 1E6","country":"CA","lat":50.66315703320569,"lng":-120.3519424258304,"phone":"+1 250-374-6534"},{"id":"ca-https-locations-tacobell-ca-en-bc-kelowna-2271-h","storeNum":"https://locations.tacobe","name":"Taco Bell","address":"2271 Harvey Avenue","city":"Kelowna","state":"BC","zip":"V1Y 6H2","country":"CA","lat":49.8781287,"lng":-119.4402145,"phone":"+1 250-860-3338"},{"id":"ca-https-locations-tacobell-ca-en-bc-langley-19971-","storeNum":"https://locations.tacobe","name":"Taco Bell","address":"19971 64th Avenue","city":"Langley","state":"BC","zip":"V2Y 1H1","country":"CA","lat":49.11950071544344,"lng":-122.66900458489796,"phone":"+1 604-530-2032"},{"id":"ca-https-locations-tacobell-ca-en-bc-nanaimo-6896-i","storeNum":"https://locations.tacobe","name":"Taco Bell","address":"6896 Island Highway North","city":"Nanaimo","state":"BC","zip":"V9V 1P6","country":"CA","lat":49.239593392167215,"lng":-124.05109156158446,"phone":"+1 250-390-1565"},{"id":"ca-https-locations-tacobell-ca-en-bc-prince-george-","storeNum":"https://locations.tacobe","name":"Taco Bell","address":"3055 Massey Drive","city":"Prince George","state":"BC","zip":"V2N 2S9","country":"CA","lat":53.89738905005553,"lng":-122.77725292138823,"phone":"+1 250-564-8226"},{"id":"ca-https-locations-tacobell-ca-en-bc-sardis-45367-l","storeNum":"https://locations.tacobe","name":"Taco Bell","address":"45367 Luckakuck Way","city":"Sardis","state":"BC","zip":"V2R 3C7","country":"CA","lat":49.1428878859766,"lng":-121.96932519716643,"phone":"+1 604-858-3799"},{"id":"ca-https-locations-tacobell-ca-en-bc-surrey-13577-7","storeNum":"https://locations.tacobe","name":"Taco Bell","address":"13577 73rd Avenue","city":"Surrey","state":"BC","zip":"V3W 2R5","country":"CA","lat":49.13528088005351,"lng":-122.84614667815207,"phone":"+1 604-596-7999"},{"id":"ca-https-locations-tacobell-ca-en-bc-surrey-9056-15","storeNum":"https://locations.tacobe","name":"Taco Bell","address":"9056 152nd Street","city":"Surrey","state":"BC","zip":"V3R 4E7","country":"CA","lat":49.16738380688245,"lng":-122.80081948094471,"phone":"+1 604-583-7775"},{"id":"ca-https-locations-tacobell-ca-en-bc-surrey-17740-5","storeNum":"https://locations.tacobe","name":"Taco Bell","address":"17740 56 Avenue","city":"Surrey","state":"BC","zip":"V3S 1C7","country":"CA","lat":49.10386164974239,"lng":-122.73056056157422,"phone":"+1 604-576-7450"},{"id":"ca-https-locations-tacobell-ca-en-bc-vancouver-964-","storeNum":"https://locations.tacobe","name":"Taco Bell","address":"964 Granville St.","city":"Vancouver","state":"BC","zip":"V6X 1L2","country":"CA","lat":49.279421204694536,"lng":-123.12224974846211,"phone":"+1 778-357-3408"},{"id":"ca-https-locations-tacobell-ca-en-bc-vernon-4510-27","storeNum":"https://locations.tacobe","name":"Taco Bell","address":"4510 \u2013 27th Street","city":"Vernon","state":"BC","zip":"V1T 4Y6","country":"CA","lat":50.278707487110985,"lng":-119.26884953153069,"phone":"+1 778-506-2767"},{"id":"ca-https-locations-tacobell-ca-en-mb-winnipeg-2079-","storeNum":"https://locations.tacobe","name":"Taco Bell","address":"2079 Pembi Highway","city":"Winnipeg","state":"MB","zip":"R3C 3V6","country":"CA","lat":49.814615355343314,"lng":-97.15246093707526,"phone":"+1 204-987-8312"},{"id":"ca-https-locations-tacobell-ca-en-mb-winnipeg-679-h","storeNum":"https://locations.tacobe","name":"Taco Bell","address":"679 Henderson Highway","city":"Winnipeg","state":"MB","zip":"R2K 2J7","country":"CA","lat":49.92498037449375,"lng":-97.10606590723035,"phone":"+1 204-987-8206"},{"id":"ca-https-locations-tacobell-ca-en-mb-winnipeg-3651-","storeNum":"https://locations.tacobe","name":"Taco Bell","address":"3651 Portage Avenue","city":"Winnipeg","state":"MB","zip":"R3K 2G6","country":"CA","lat":49.882453173352985,"lng":-97.31297415153789,"phone":"+1 204-987-8229"},{"id":"ca-https-locations-tacobell-ca-en-mb-winnipeg-750-s","storeNum":"https://locations.tacobe","name":"Taco Bell","address":"750 Sherbrook Street","city":"Winnipeg","state":"MB","zip":"R3B 2X4","country":"CA","lat":49.900918289116326,"lng":-97.15857615913771,"phone":"+1 204-987-8201"},{"id":"ca-https-locations-tacobell-ca-en-mb-winnipeg-1651-","storeNum":"https://locations.tacobe","name":"Taco Bell","address":"1651 Regent Avenue","city":"Winnipeg","state":"MB","zip":"R2C 4H9","country":"CA","lat":49.89917061525131,"lng":-97.07150480537791,"phone":"+1 204-987-8207"},{"id":"ca-https-locations-tacobell-ca-en-mb-winnipeg-1275-","storeNum":"https://locations.tacobe","name":"Taco Bell","address":"1275 Portage Avenue","city":"Winnipeg","state":"MB","zip":"R3G 0T8","country":"CA","lat":49.883343425947,"lng":-97.18659807792658,"phone":"+1 204-987-8004"},{"id":"ca-https-locations-tacobell-ca-en-mb-winnipeg-1125-","storeNum":"https://locations.tacobe","name":"Taco Bell","address":"1125 Main Street","city":"Winnipeg","state":"MB","zip":"R2W 3S4","country":"CA","lat":49.91732669169707,"lng":-97.12996353421397,"phone":"+1 204-987-8204"},{"id":"ca-https-locations-tacobell-ca-en-mb-winnipeg-1030-","storeNum":"https://locations.tacobe","name":"Taco Bell","address":"1030 Keewatin Street","city":"Winnipeg","state":"MB","zip":"R2R 2E2","country":"CA","lat":49.944380260667515,"lng":-97.19599623614835,"phone":"+1 204-987-8314"},{"id":"ca-https-locations-tacobell-ca-en-mb-winnipeg-1100-","storeNum":"https://locations.tacobe","name":"Taco Bell","address":"1100 St. Mary's Road","city":"Winnipeg","state":"MB","zip":"R2M 3T4","country":"CA","lat":49.83490449062362,"lng":-97.11400981397622,"phone":"+1 204-987-8209"},{"id":"ca-https-locations-tacobell-ca-en-mb-winnipeg-16-la","storeNum":"https://locations.tacobe","name":"Taco Bell","address":"16 Lakewood Blvd.","city":"Winnipeg","state":"MB","zip":"R2J 2M6","country":"CA","lat":49.85546667457202,"lng":-97.07913335630413,"phone":"+1 204-987-8309"},{"id":"ca-https-locations-tacobell-ca-en-nb-dieppe-451-pau","storeNum":"https://locations.tacobe","name":"Taco Bell","address":"451 Paul Street","city":"Dieppe","state":"NB","zip":"E1A 6W8","country":"CA","lat":46.09462349086751,"lng":-64.7565726685288,"phone":"+1 506-858-8877"},{"id":"ca-https-locations-tacobell-ca-en-nb-fredericton-13","storeNum":"https://locations.tacobe","name":"Taco Bell","address":"1381 Regent St","city":"Fredericton","state":"NB","zip":"E3C 1A2","country":"CA","lat":45.9356657,"lng":-66.6654214,"phone":"+1 506-458-8226"},{"id":"ca-https-locations-tacobell-ca-en-nb-saint-john-545","storeNum":"https://locations.tacobe","name":"Taco Bell","address":"545 Westmorland Place","city":"Saint John","state":"NB","zip":"E2J 3T3","country":"CA","lat":45.31140699309914,"lng":-66.01422879470944,"phone":"+1 506-633-4811"},{"id":"ca-https-locations-tacobell-ca-en-nb-saint-john-944","storeNum":"https://locations.tacobe","name":"Taco Bell","address":"944 Fairville Blvd, Unit 2","city":"Saint John","state":"NB","zip":"E2B5T5","country":"CA","lat":45.24903330048502,"lng":-66.10391760934179,"phone":"+1 506-657-7788"},{"id":"ca-https-locations-tacobell-ca-en-nl-mount-pearl-47","storeNum":"https://locations.tacobe","name":"Taco Bell","address":"47 Commonwealth Avenue","city":"Mount Pearl","state":"NL","zip":"A1N 1W7","country":"CA","lat":47.51694265227995,"lng":-52.806094149774296,"phone":"+1 709-984-0147"},{"id":"ca-https-locations-tacobell-ca-en-nl-st-johns-34-ro","storeNum":"https://locations.tacobe","name":"Taco Bell","address":"34 Ropewalk Lane","city":"St. John's","state":"NL","zip":"A1E 1V1","country":"CA","lat":47.55593902344989,"lng":-52.735853709049486,"phone":"+1 709-207-2400"},{"id":"ca-https-locations-tacobell-ca-en-ns-dartmouth-21-m","storeNum":"https://locations.tacobe","name":"Taco Bell","address":"21 Mic Mac Blvd.","city":"Dartmouth","state":"NS","zip":"B3A 4N3","country":"CA","lat":44.6860981,"lng":-63.5597947,"phone":"+1 902-463-1300"},{"id":"ca-https-locations-tacobell-ca-en-ns-halifax-7001-m","storeNum":"https://locations.tacobe","name":"Taco Bell","address":"7001 Mumford Road","city":"Halifax","state":"NS","zip":"B3L 4N9","country":"CA","lat":44.64932365934112,"lng":-63.618155971343555,"phone":"+1 902-455-1824"},{"id":"ca-https-locations-tacobell-ca-en-ns-stewiacke-87-w","storeNum":"https://locations.tacobe","name":"Taco Bell","address":"87 West Main Street","city":"Stewiacke","state":"NS","zip":"B0N 2J0","country":"CA","lat":45.14000783278669,"lng":-63.36196788513742,"phone":"+1 902-639-2244"},{"id":"ca-https-locations-tacobell-ca-en-ns-sydney-river-2","storeNum":"https://locations.tacobe","name":"Taco Bell","address":"29 Keltic Drive","city":"Sydney River","state":"NS","zip":"B1S 1P4","country":"CA","lat":46.10857573014643,"lng":-60.22422658222573,"phone":"+1 902-564-6646"},{"id":"ca-https-locations-tacobell-ca-en-ns-truro-242-robi","storeNum":"https://locations.tacobe","name":"Taco Bell","address":"242 Robie Street","city":"Truro","state":"NS","zip":"B2N 1L1","country":"CA","lat":45.36904868919956,"lng":-63.301544534193525,"phone":"+1 902-895-2101"},{"id":"ca-https-locations-tacobell-ca-en-ns-yarmouth-536-m","storeNum":"https://locations.tacobe","name":"Taco Bell","address":"536 Main Street","city":"Yarmouth","state":"NS","zip":"B5A 4B6","country":"CA","lat":43.845957180412654,"lng":-66.11675365889549,"phone":"+1 902-742-4581"},{"id":"ca-https-locations-tacobell-ca-en-on-ajax-422-bayly","storeNum":"https://locations.tacobe","name":"Taco Bell","address":"422 Bayly Street West","city":"Ajax","state":"ON","zip":"L1S 1P1","country":"CA","lat":43.84086669384832,"lng":-79.03426794184797,"phone":"+1 905-686-3125"},{"id":"ca-https-locations-tacobell-ca-en-on-amherstburg-52","storeNum":"https://locations.tacobe","name":"Taco Bell","address":"527 Sandwich Street South","city":"Amherstburg","state":"ON","zip":"N9V 3G5","country":"CA","lat":42.09258840740196,"lng":-83.106459,"phone":"+1 519-713-9449"},{"id":"ca-https-locations-tacobell-ca-en-on-barrie-644-yon","storeNum":"https://locations.tacobe","name":"Taco Bell","address":"644 Yonge Street","city":"Barrie","state":"ON","zip":"L4N 4E6","country":"CA","lat":44.35541466850733,"lng":-79.64474739410207,"phone":"+1 705-719-7467"},{"id":"ca-https-locations-tacobell-ca-en-on-barrie-315-bay","storeNum":"https://locations.tacobe","name":"Taco Bell","address":"315 Bayfield Street North","city":"Barrie","state":"ON","zip":"L4M 3C2","country":"CA","lat":44.40145088723697,"lng":-79.69985727615007,"phone":"+1 705-726-7220"},{"id":"ca-https-locations-tacobell-ca-en-on-belleville-336","storeNum":"https://locations.tacobe","name":"Taco Bell","address":"336 Front Street North","city":"Belleville","state":"ON","zip":"K8N 5J4","country":"CA","lat":44.186109254322915,"lng":-77.39579814655664,"phone":"+1 343-710-0049"},{"id":"ca-https-locations-tacobell-ca-en-on-belleville-390","storeNum":"https://locations.tacobe","name":"Taco Bell","address":"390 North Front Street","city":"Belleville","state":"ON","zip":"K8P 3C9","country":"CA","lat":44.1891995,"lng":-77.4016952,"phone":"+1 613-966-1642"},{"id":"ca-https-locations-tacobell-ca-en-on-brampton-3058-","storeNum":"https://locations.tacobe","name":"Taco Bell","address":"3058 Mayfield Road","city":"Brampton","state":"ON","zip":"L6Z 0E3","country":"CA","lat":43.734807017915045,"lng":-79.82435333704755,"phone":"+1 905-846-3935"},{"id":"ca-https-locations-tacobell-ca-en-on-brampton-45-ch","storeNum":"https://locations.tacobe","name":"Taco Bell","address":"45 Cherrycrest Drive","city":"Brampton","state":"ON","zip":"L6P 0S2","country":"CA","lat":43.76397597821852,"lng":-79.66882729042051,"phone":"+1 905-794-8105"},{"id":"ca-https-locations-tacobell-ca-en-on-brampton-9465-","storeNum":"https://locations.tacobe","name":"Taco Bell","address":"9465 Mississauga Road","city":"Brampton","state":"ON","zip":"L6X 0Z8","country":"CA","lat":43.65629183759351,"lng":-79.81466884180487,"phone":"+1 905-453-8118"},{"id":"ca-https-locations-tacobell-ca-en-on-brampton-499-m","storeNum":"https://locations.tacobe","name":"Taco Bell","address":"499 Main Street South","city":"Brampton","state":"ON","zip":"L6Y 1N7","country":"CA","lat":43.666139398794556,"lng":-79.73787561301832,"phone":"+1 905-796-6790"},{"id":"ca-https-locations-tacobell-ca-en-on-brampton-10068","storeNum":"https://locations.tacobe","name":"Taco Bell","address":"10068 McLaughlin Road","city":"Brampton","state":"ON","zip":"L7A 2X6","country":"CA","lat":43.696724743412474,"lng":-79.79945464919385,"phone":"+1 905-495-2367"},{"id":"ca-https-locations-tacobell-ca-en-on-brampton-9940-","storeNum":"https://locations.tacobe","name":"Taco Bell","address":"9940 Airport Road","city":"Brampton","state":"ON","zip":"L6S 0C5","country":"CA","lat":43.76104748414604,"lng":-79.72001076280782,"phone":"+1 905-799-2736"},{"id":"ca-https-locations-tacobell-ca-en-on-brampton-25-pe","storeNum":"https://locations.tacobe","name":"Taco Bell","address":"25 Peel Centre Dr","city":"Brampton","state":"ON","zip":"L6T3R5","country":"CA","lat":43.71535860699697,"lng":-79.72227279065827,"phone":"+1 905-458-5900"},{"id":"ca-https-locations-tacobell-ca-en-on-brant-1-hartle","storeNum":"https://locations.tacobe","name":"Taco Bell","address":"1 Hartley Ave","city":"Brant","state":"ON","zip":"N3L 3E2","country":"CA","lat":43.217,"lng":-80.392,"phone":"+1 519-442-2968"},{"id":"ca-https-locations-tacobell-ca-en-on-brantford-11-s","storeNum":"https://locations.tacobe","name":"Taco Bell","address":"11 Sinclair Boulevard","city":"Brantford","state":"ON","zip":"N3S 7X6","country":"CA","lat":43.1693721,"lng":-80.2152786,"phone":"+1 519-770-1436"},{"id":"ca-https-locations-tacobell-ca-en-on-brantford-656-","storeNum":"https://locations.tacobe","name":"Taco Bell","address":"656 Colborne Street","city":"Brantford","state":"ON","zip":"N3S 3P8","country":"CA","lat":43.141420652569934,"lng":-80.23849976279757,"phone":"+1 519-750-1852"},{"id":"ca-https-locations-tacobell-ca-en-on-brantford-68-k","storeNum":"https://locations.tacobe","name":"Taco Bell","address":"68 King George Road","city":"Brantford","state":"ON","zip":"N3R 5K4","country":"CA","lat":43.164644208098814,"lng":-80.27407730512547,"phone":"+1 519-752-2686"},{"id":"ca-https-locations-tacobell-ca-en-on-brantford-84-l","storeNum":"https://locations.tacobe","name":"Taco Bell","address":"84 Lynden Road","city":"Brantford","state":"ON","zip":"N3R 6B8","country":"CA","lat":43.1715199638716,"lng":-80.23992033799209,"phone":"+1 519-752-4777"},{"id":"ca-https-locations-tacobell-ca-en-on-burlington-900","storeNum":"https://locations.tacobe","name":"Taco Bell","address":"900 Maple Avenue","city":"Burlington","state":"ON","zip":"L7S 2J8","country":"CA","lat":43.3258269,"lng":-79.8208432,"phone":"+1 905-634-1441"},{"id":"ca-https-locations-tacobell-ca-en-on-burlington-777","storeNum":"https://locations.tacobe","name":"Taco Bell","address":"777 Guelph Line","city":"Burlington","state":"ON","zip":"L7R 3N2","country":"CA","lat":43.3489223,"lng":-79.7951251,"phone":"+1 905-631-0437"},{"id":"ca-https-locations-tacobell-ca-en-on-cambridge-355-","storeNum":"https://locations.tacobe","name":"Taco Bell","address":"355 Hespeler Road","city":"Cambridge","state":"ON","zip":"N1R 6B3","country":"CA","lat":43.3938003,"lng":-80.3201725,"phone":"+1 250-627-4992"},{"id":"ca-https-locations-tacobell-ca-en-on-chatham-328-st","storeNum":"https://locations.tacobe","name":"Taco Bell","address":"328 St Clair Street","city":"Chatham","state":"ON","zip":"N7L3K1","country":"CA","lat":42.41307798271867,"lng":-82.19803907321847,"phone":"+1 519-351-7485"},{"id":"ca-https-locations-tacobell-ca-en-on-cornwall-418-n","storeNum":"https://locations.tacobe","name":"Taco Bell","address":"418 Ninth St W","city":"Cornwall","state":"ON","zip":"K6J 4J7","country":"CA","lat":45.025296405661656,"lng":-74.74499466821504,"phone":"+1 613-361-3267"},{"id":"ca-https-locations-tacobell-ca-en-on-etobicoke-1610","storeNum":"https://locations.tacobe","name":"Taco Bell","address":"1610 The Queensway","city":"Etobicoke","state":"ON","zip":"M8Z 1V1","country":"CA","lat":43.617351844688066,"lng":-79.54410826709677,"phone":"+1 416-255-1917"},{"id":"ca-https-locations-tacobell-ca-en-on-etobicoke-1727","storeNum":"https://locations.tacobe","name":"Taco Bell","address":"1727 Albion Road","city":"Etobicoke","state":"ON","zip":"M9V 1C1","country":"CA","lat":43.743077560175905,"lng":-79.60292792207281,"phone":"+1 416-743-7486"},{"id":"ca-https-locations-tacobell-ca-en-on-fort-erie-644-","storeNum":"https://locations.tacobe","name":"Taco Bell","address":"644 Garrison Road","city":"Fort Erie","state":"ON","zip":"L2A 1N4","country":"CA","lat":42.905746,"lng":-78.938285,"phone":"+1 365-607-5945"},{"id":"ca-https-locations-tacobell-ca-en-on-gloucester-402","storeNum":"https://locations.tacobe","name":"Taco Bell","address":"4027 Innes Road","city":"Gloucester","state":"ON","zip":"K1C 1T1","country":"CA","lat":45.45582296481919,"lng":-75.50544688797375,"phone":"+1 613-830-9586"},{"id":"ca-https-locations-tacobell-ca-en-on-grimsby-424-so","storeNum":"https://locations.tacobe","name":"Taco Bell","address":"424 South Service Road","city":"Grimsby","state":"ON","zip":"L3M 4G3","country":"CA","lat":43.20636869151592,"lng":-79.59817912240338,"phone":"+1 905-309-3963"},{"id":"ca-https-locations-tacobell-ca-en-on-guelph-20-wood","storeNum":"https://locations.tacobe","name":"Taco Bell","address":"20 Woodlawn","city":"Guelph","state":"ON","zip":"N1H 1G7","country":"CA","lat":43.5668371,"lng":-80.2759151,"phone":"+1 519-780-2999"},{"id":"ca-https-locations-tacobell-ca-en-on-guelph-455-woo","storeNum":"https://locations.tacobe","name":"Taco Bell","address":"455 Woodlawn Rd W","city":"Guelph","state":"ON","zip":"N1K 1A6","country":"CA","lat":43.5446839233417,"lng":-80.30813391354172,"phone":"+1 519-780-2499"},{"id":"ca-https-locations-tacobell-ca-en-on-guelph-435-sto","storeNum":"https://locations.tacobe","name":"Taco Bell","address":"435 Stone Road West","city":"Guelph","state":"ON","zip":"N1G 2X6","country":"CA","lat":43.51842291808014,"lng":-80.23824312722587,"phone":"+1 519-780-4262"},{"id":"ca-https-locations-tacobell-ca-en-on-hamilton-677-u","storeNum":"https://locations.tacobe","name":"Taco Bell","address":"677 Upper James St","city":"Hamilton","state":"ON","zip":"L9C 5R9","country":"CA","lat":43.23444615457717,"lng":-79.87890181595246,"phone":"+1 905-383-8877"},{"id":"ca-https-locations-tacobell-ca-en-on-hamilton-744-q","storeNum":"https://locations.tacobe","name":"Taco Bell","address":"744 Queenston Rd N","city":"Hamilton","state":"ON","zip":"L8G1A4","country":"CA","lat":43.228741645047855,"lng":-79.76938592600247,"phone":"+1 905-573-0733"},{"id":"ca-https-locations-tacobell-ca-en-on-hamilton-1550-","storeNum":"https://locations.tacobe","name":"Taco Bell","address":"1550 Upper James St","city":"Hamilton","state":"ON","zip":"L9B1K3","country":"CA","lat":43.20331460674649,"lng":-79.89453284697287,"phone":"+1 905-387-6006"},{"id":"ca-https-locations-tacobell-ca-en-on-hamilton-2-kin","storeNum":"https://locations.tacobe","name":"Taco Bell","address":"2 King Street West","city":"Hamilton","state":"ON","zip":"L9H 6Z1","country":"CA","lat":43.26583963514284,"lng":-79.95421199995909,"phone":"+1 905-308-7542"},{"id":"ca-https-locations-tacobell-ca-en-on-hamilton-999-u","storeNum":"https://locations.tacobe","name":"Taco Bell","address":"999 Upper Wentworth","city":"Hamilton","state":"ON","zip":"L9A 4X5","country":"CA","lat":43.217312,"lng":-79.8602836,"phone":"+1 905-318-6565"},{"id":"ca-https-locations-tacobell-ca-en-on-hamilton-1195-","storeNum":"https://locations.tacobe","name":"Taco Bell","address":"1195 Barton Street East","city":"Hamilton","state":"ON","zip":"L8H 2V7","country":"CA","lat":43.25082547945736,"lng":-79.81084493323834,"phone":"+1 289-674-8414"},{"id":"ca-https-locations-tacobell-ca-en-on-hannon-2154-ry","storeNum":"https://locations.tacobe","name":"Taco Bell","address":"2154 Rymal Road East","city":"Hannon","state":"ON","zip":"L0R 1P0","country":"CA","lat":43.174595262551094,"lng":-79.78854559029381,"phone":"+1 905-692-2224"},{"id":"ca-https-locations-tacobell-ca-en-on-hawkesbury-500","storeNum":"https://locations.tacobe","name":"Taco Bell","address":"500 Spence Avenue","city":"Hawkesbury","state":"ON","zip":"K6A 2Y3","country":"CA","lat":45.5978425575633,"lng":-74.60974352405863,"phone":"+1 343-500-0172"},{"id":"ca-https-locations-tacobell-ca-en-on-huntsville-15-","storeNum":"https://locations.tacobe","name":"Taco Bell","address":"15 Hanes Road","city":"Huntsville","state":"ON","zip":"P1H 1L8","country":"CA","lat":45.3389614729433,"lng":-79.22008091817308,"phone":"+1 705-789-8718"},{"id":"ca-https-locations-tacobell-ca-en-on-kanata-461-haz","storeNum":"https://locations.tacobe","name":"Taco Bell","address":"461 Hazeldean Road","city":"Kanata","state":"ON","zip":"K2L 1V1","country":"CA","lat":45.29956220487979,"lng":-75.88677923599727,"phone":"+1 613-591-6732"},{"id":"ca-https-locations-tacobell-ca-en-on-kingston-1668-","storeNum":"https://locations.tacobe","name":"Taco Bell","address":"1668 Bath Road","city":"Kingston","state":"ON","zip":"K7M 4X9","country":"CA","lat":44.23770967115461,"lng":-76.5691009640312,"phone":"+1 613-389-5393"},{"id":"ca-https-locations-tacobell-ca-en-on-kingston-29-wa","storeNum":"https://locations.tacobe","name":"Taco Bell","address":"29 Warne Crescent","city":"Kingston","state":"ON","zip":"K7K 5A6","country":"CA","lat":44.266928237690315,"lng":-76.49991101064799,"phone":"+1 613-531-9693"},{"id":"ca-https-locations-tacobell-ca-en-on-kingston-945-g","storeNum":"https://locations.tacobe","name":"Taco Bell","address":"945 Gardiners Road","city":"Kingston","state":"ON","zip":"K7M 7H4","country":"CA","lat":44.25619111516249,"lng":-76.57187584716726,"phone":"+1 613-384-1799"},{"id":"ca-https-locations-tacobell-ca-en-on-kingsville-329","storeNum":"https://locations.tacobe","name":"Taco Bell","address":"329 Main Street East","city":"Kingsville","state":"ON","zip":"N9Y 1A7","country":"CA","lat":42.03794771494313,"lng":-82.72473740071582,"phone":"+1 519-733-2733"},{"id":"ca-https-locations-tacobell-ca-en-on-kitchener-1020","storeNum":"https://locations.tacobe","name":"Taco Bell","address":"1020 Ottawa Street North","city":"Kitchener","state":"ON","zip":"N2A 3Z3","country":"CA","lat":43.45227580460541,"lng":-80.44351837069411,"phone":"+1 519-894-1615"},{"id":"ca-https-locations-tacobell-ca-en-on-kitchener-2960","storeNum":"https://locations.tacobe","name":"Taco Bell","address":"2960 Kingsway Drive","city":"Kitchener","state":"ON","zip":"N2C 1X1","country":"CA","lat":43.4252096,"lng":-80.4385463,"phone":"+1 519-894-0101"},{"id":"ca-https-locations-tacobell-ca-en-on-kitchener-2480","storeNum":"https://locations.tacobe","name":"Taco Bell","address":"2480 Homer Watson Boulevard","city":"Kitchener","state":"ON","zip":"N2P 2R5","country":"CA","lat":43.3858801,"lng":-80.4104473,"phone":"+1 519-894-3434"},{"id":"ca-https-locations-tacobell-ca-en-on-lasalle-2301-s","storeNum":"https://locations.tacobe","name":"Taco Bell","address":"2301 Sandwich W Pkwy","city":"LaSalle","state":"ON","zip":"N9H 0A6","country":"CA","lat":42.236818,"lng":-83.018352,"phone":"+1 226-221-9010"},{"id":"ca-https-locations-tacobell-ca-en-on-lindsay-1-comm","storeNum":"https://locations.tacobe","name":"Taco Bell","address":"1 Commerce Road","city":"Lindsay","state":"ON","zip":"K9V5Y3","country":"CA","lat":44.349002,"lng":-78.762544,"phone":"+1 705-324-6174"},{"id":"ca-https-locations-tacobell-ca-en-on-listowel-300-m","storeNum":"https://locations.tacobe","name":"Taco Bell","address":"300 Mitchell Rd South","city":"Listowel","state":"ON","zip":"N4W 0H4","country":"CA","lat":43.7342938,"lng":-80.9662359,"phone":"+1 519-418-3040"},{"id":"ca-https-locations-tacobell-ca-en-on-london-1040-wo","storeNum":"https://locations.tacobe","name":"Taco Bell","address":"1040 Wonderland Road South","city":"London","state":"ON","zip":"N6K 3S4","country":"CA","lat":42.9403161320288,"lng":-81.2810156032249,"phone":"+1 226-330-0770"},{"id":"ca-https-locations-tacobell-ca-en-on-london-1850-ad","storeNum":"https://locations.tacobe","name":"Taco Bell","address":"1850 Adelaide St N","city":"London","state":"ON","zip":"N5X 4B7","country":"CA","lat":43.046439,"lng":-81.260455,"phone":"+1 519-672-4046"},{"id":"ca-https-locations-tacobell-ca-en-on-london-1105-we","storeNum":"https://locations.tacobe","name":"Taco Bell","address":"1105 Wellington Road South","city":"London","state":"ON","zip":"N6E 1V4","country":"CA","lat":42.9314007,"lng":-81.2245415,"phone":"+1 519-685-2555"},{"id":"ca-https-locations-tacobell-ca-en-on-london-1584-du","storeNum":"https://locations.tacobe","name":"Taco Bell","address":"1584 Dundas St","city":"London","state":"ON","zip":"N5W3C1","country":"CA","lat":43.00012717106643,"lng":-81.1932073137238,"phone":"+1 519-455-4338"},{"id":"ca-https-locations-tacobell-ca-en-on-london-1145-hi","storeNum":"https://locations.tacobe","name":"Taco Bell","address":"1145 Highbury Ave","city":"London","state":"ON","zip":"N5Y1A5","country":"CA","lat":43.01354146387945,"lng":-81.21264471910254,"phone":"+1 519-455-9737"},{"id":"ca-https-locations-tacobell-ca-en-on-london-1680-ri","storeNum":"https://locations.tacobe","name":"Taco Bell","address":"1680 Richmond Street","city":"London","state":"ON","zip":"N6G 3Y9","country":"CA","lat":43.02563946816738,"lng":-81.27847800305842,"phone":"+1 519-642-9502"},{"id":"ca-https-locations-tacobell-ca-en-on-london-1026-wo","storeNum":"https://locations.tacobe","name":"Taco Bell","address":"1026 Wonderland Road South","city":"London","state":"ON","zip":"N6K 3S4","country":"CA","lat":42.94031232807006,"lng":-81.28108554786778,"phone":"+1 226-330-0770"},{"id":"ca-https-locations-tacobell-ca-en-on-london-1915-hy","storeNum":"https://locations.tacobe","name":"Taco Bell","address":"1915 Hyde Park Road","city":"London","state":"ON","zip":"N6H 0A3","country":"CA","lat":43.00856443507193,"lng":-81.33631976280782,"phone":"+1 519-471-2283"},{"id":"ca-https-locations-tacobell-ca-en-on-markham-5000-h","storeNum":"https://locations.tacobe","name":"Taco Bell","address":"5000 Hwy 7 E","city":"Markham","state":"ON","zip":"L3R 4M9","country":"CA","lat":43.8704582,"lng":-79.287111,"phone":"+1 905-944-0258"},{"id":"ca-https-locations-tacobell-ca-en-on-milton-405-mar","storeNum":"https://locations.tacobe","name":"Taco Bell","address":"405 Martin Street","city":"Milton","state":"ON","zip":"L9T 2R8","country":"CA","lat":43.52170909277689,"lng":-79.89324438796656,"phone":"+1 905-864-0551"},{"id":"ca-https-locations-tacobell-ca-en-on-mississauga-10","storeNum":"https://locations.tacobe","name":"Taco Bell","address":"100 City Centre Dr","city":"Mississauga","state":"ON","zip":"L5B2C9","country":"CA","lat":43.5927495,"lng":-79.642583,"phone":"+1 416-207-8916"},{"id":"ca-https-locations-tacobell-ca-en-on-mississauga-98","storeNum":"https://locations.tacobe","name":"Taco Bell","address":"985 Eglinton Avenue East","city":"Mississauga","state":"ON","zip":"L4W 4H3","country":"CA","lat":43.62659774736464,"lng":-79.6315317144575,"phone":"+1 905-238-9514"},{"id":"ca-https-locations-tacobell-ca-en-on-mississauga-22","storeNum":"https://locations.tacobe","name":"Taco Bell","address":"2225 Erin Mills Parkway","city":"Mississauga","state":"ON","zip":"L5K 1T8","country":"CA","lat":43.530482691766125,"lng":-79.65342620510253,"phone":"+1 905-822-5454"},{"id":"ca-https-locations-tacobell-ca-en-on-mississauga-71","storeNum":"https://locations.tacobe","name":"Taco Bell","address":"7161 Goreway Drive","city":"Mississauga","state":"ON","zip":"L4T 2T5","country":"CA","lat":43.71693861141299,"lng":-79.63541312721564,"phone":"+1 905-677-3813"},{"id":"ca-https-locations-tacobell-ca-en-on-mississauga-51","storeNum":"https://locations.tacobe","name":"Taco Bell","address":"5100 Erin Mills Parkway","city":"Mississauga","state":"ON","zip":"L5M 4Z5","country":"CA","lat":43.5589289,"lng":-79.7112001,"phone":"+1 905-828-6996"},{"id":"ca-https-locations-tacobell-ca-en-on-nepean-100-bay","storeNum":"https://locations.tacobe","name":"Taco Bell","address":"100 Bayshore Drive","city":"Nepean","state":"ON","zip":"K2B 8C1","country":"CA","lat":45.348094902118135,"lng":-75.80473650981884,"phone":"+1 613-721-7664"},{"id":"ca-https-locations-tacobell-ca-en-on-newmarket-1659","storeNum":"https://locations.tacobe","name":"Taco Bell","address":"16599 Yonge Street","city":"Newmarket","state":"ON","zip":"L3X 2G8","country":"CA","lat":44.03251036691442,"lng":-79.47465238367458,"phone":"+1 905-898-0673"},{"id":"ca-https-locations-tacobell-ca-en-on-newmarket-1760","storeNum":"https://locations.tacobe","name":"Taco Bell","address":"17600 Yonge Street North","city":"Newmarket","state":"ON","zip":"L3Y 4Z1","country":"CA","lat":44.0574448,"lng":-79.4858624,"phone":"+1 905-830-1919"},{"id":"ca-https-locations-tacobell-ca-en-on-niagara-falls-","storeNum":"https://locations.tacobe","name":"Taco Bell","address":"6555 Lundy's Lane","city":"Niagara Falls","state":"ON","zip":"L2G 1V1","country":"CA","lat":43.089682038035185,"lng":-79.10401487936522,"phone":"+1 905-357-4336"},{"id":"ca-https-locations-tacobell-ca-en-on-niagara-falls-","storeNum":"https://locations.tacobe","name":"Taco Bell","address":"3770 Montrose Rd","city":"Niagara Falls","state":"ON","zip":"L2H 3K3","country":"CA","lat":43.117387393734994,"lng":-79.12421988050573,"phone":"+1 905-371-0707"},{"id":"ca-https-locations-tacobell-ca-en-on-north-bay-2021","storeNum":"https://locations.tacobe","name":"Taco Bell","address":"2021 Algonquin Avenue","city":"North Bay","state":"ON","zip":"P1B 4Z3","country":"CA","lat":46.3327415,"lng":-79.4671211,"phone":"+1 705-995-4473"},{"id":"ca-https-locations-tacobell-ca-en-on-north-york-377","storeNum":"https://locations.tacobe","name":"Taco Bell","address":"3777 Keele Street","city":"North York","state":"ON","zip":"M3J 1N5","country":"CA","lat":43.75884262347261,"lng":-79.48921376380633,"phone":"+1 416-630-4050"},{"id":"ca-https-locations-tacobell-ca-en-on-orangeville-38","storeNum":"https://locations.tacobe","name":"Taco Bell","address":"38 Broadway Avenue","city":"Orangeville","state":"ON","zip":"L9W 1J4","country":"CA","lat":43.92110120404947,"lng":-80.08658253926944,"phone":"+1 519-941-3393"},{"id":"ca-https-locations-tacobell-ca-en-on-orillia-705-un","storeNum":"https://locations.tacobe","name":"Taco Bell","address":"705 University Avenue","city":"Orillia","state":"ON","zip":"L3V 6H2","country":"CA","lat":44.59775414326671,"lng":-79.45287575808821,"phone":"+1 249-449-3192"},{"id":"ca-https-locations-tacobell-ca-en-on-oshawa-419-kin","storeNum":"https://locations.tacobe","name":"Taco Bell","address":"419 King St W.","city":"Oshawa","state":"ON","zip":"L1J2K5","country":"CA","lat":43.89022423056977,"lng":-78.87937993206239,"phone":"+1 905-723-8200"},{"id":"ca-https-locations-tacobell-ca-en-on-oshawa-1326-si","storeNum":"https://locations.tacobe","name":"Taco Bell","address":"1326 Simcoe St N","city":"Oshawa","state":"ON","zip":"L1G4X4","country":"CA","lat":43.93239427843824,"lng":-78.87935683274839,"phone":"+1 905-725-9775"},{"id":"ca-https-locations-tacobell-ca-en-on-ottawa-1200-st","storeNum":"https://locations.tacobe","name":"Taco Bell","address":"1200 St-Laurent Blvd.","city":"Ottawa","state":"ON","zip":"K1K 3B8","country":"CA","lat":45.4227431,"lng":-75.6382835,"phone":"+1 613-746-7400"},{"id":"ca-https-locations-tacobell-ca-en-on-ottawa-305-rid","storeNum":"https://locations.tacobe","name":"Taco Bell","address":"305 Rideau Street","city":"Ottawa","state":"ON","zip":"K1N 5Y6","country":"CA","lat":45.42928604707618,"lng":-75.68552714307134,"phone":"+1 613-744-1625"},{"id":"ca-https-locations-tacobell-ca-en-on-petawawa-3025-","storeNum":"https://locations.tacobe","name":"Taco Bell","address":"3025 Petawawa Blvd","city":"Petawawa","state":"ON","zip":"K8H1X9","country":"CA","lat":45.88976493049631,"lng":-77.26149964001516,"phone":"+1 613-687-2526"},{"id":"ca-https-locations-tacobell-ca-en-on-peterborough-5","storeNum":"https://locations.tacobe","name":"Taco Bell","address":"595 Lansdowne Street West","city":"Peterborough","state":"ON","zip":"K9J 1Z1","country":"CA","lat":44.28568335200634,"lng":-78.32925566232429,"phone":"+1 705-740-1694"},{"id":"ca-https-locations-tacobell-ca-en-on-pickering-1355","storeNum":"https://locations.tacobe","name":"Taco Bell","address":"1355 Kingston Road","city":"Pickering","state":"ON","zip":"L1V 1B8","country":"CA","lat":43.8362894,"lng":-79.0862354,"phone":"+1 905-837-0774"},{"id":"ca-https-locations-tacobell-ca-en-on-richmond-hill-","storeNum":"https://locations.tacobe","name":"Taco Bell","address":"1070 Major Mackenzie Drive East","city":"Richmond Hill","state":"ON","zip":"L4S 1P3","country":"CA","lat":43.8764612,"lng":-79.4116279,"phone":"+1 905-884-3444"},{"id":"ca-https-locations-tacobell-ca-en-on-sudbury-1349-l","storeNum":"https://locations.tacobe","name":"Taco Bell","address":"1349 LASALLE BLVD","city":"SUDBURY","state":"ON","zip":"P3A 1Z2","country":"CA","lat":46.51969594997212,"lng":-80.94643883146496,"phone":"+1 705-670-3066"},{"id":"ca-https-locations-tacobell-ca-en-on-saint-thomas-9","storeNum":"https://locations.tacobe","name":"Taco Bell","address":"950 Talbot Street","city":"Saint Thomas","state":"ON","zip":"N5P 1E7","country":"CA","lat":42.77849097778341,"lng":-81.1802035979886,"phone":"+1 519-633-3370"},{"id":"ca-https-locations-tacobell-ca-en-on-sarnia-1337-lo","storeNum":"https://locations.tacobe","name":"Taco Bell","address":"1337 London Road","city":"Sarnia","state":"ON","zip":"N7S 1P6","country":"CA","lat":42.9795454,"lng":-82.3566127,"phone":"+1 519-383-7875"},{"id":"ca-https-locations-tacobell-ca-en-on-sarnia-260-ind","storeNum":"https://locations.tacobe","name":"Taco Bell","address":"260 Indian Rd S","city":"Sarnia","state":"ON","zip":"N7T 1X5","country":"CA","lat":42.9646247,"lng":-82.3759657,"phone":"+1 519-491-1068"},{"id":"ca-https-locations-tacobell-ca-en-on-sault-ste-mari","storeNum":"https://locations.tacobe","name":"Taco Bell","address":"389 Great Northern Road","city":"Sault Ste Marie","state":"ON","zip":"P6B 4Z8","country":"CA","lat":46.537590109105615,"lng":-84.3197603958981,"phone":"+1 705-946-2791"},{"id":"ca-https-locations-tacobell-ca-en-on-sault-ste-mari","storeNum":"https://locations.tacobe","name":"Taco Bell","address":"293 Bay Street","city":"Sault Ste. Marie","state":"ON","zip":"P6A 1X3","country":"CA","lat":46.512886985490915,"lng":-84.33899611408617,"phone":"+1 705-251-0631"},{"id":"ca-https-locations-tacobell-ca-en-on-scarborough-30","storeNum":"https://locations.tacobe","name":"Taco Bell","address":"300 Borough Dr.","city":"Scarborough","state":"ON","zip":"M1P 4P5","country":"CA","lat":43.77528873651932,"lng":-79.25783304822386,"phone":"+1 416-296-1287"},{"id":"ca-https-locations-tacobell-ca-en-on-scarborough-31","storeNum":"https://locations.tacobe","name":"Taco Bell","address":"31 Tapscott Road","city":"Scarborough","state":"ON","zip":"M1B 4Y7","country":"CA","lat":43.8068202,"lng":-79.2208236,"phone":"+1 416-292-7140"},{"id":"ca-https-locations-tacobell-ca-en-on-scarborough-13","storeNum":"https://locations.tacobe","name":"Taco Bell","address":"1338 Kennedy Road","city":"Scarborough","state":"ON","zip":"M1P 1L5","country":"CA","lat":43.76088765223441,"lng":-79.27989599593283,"phone":"+1 416-755-6028"},{"id":"ca-https-locations-tacobell-ca-en-on-scarborough-24","storeNum":"https://locations.tacobe","name":"Taco Bell","address":"245 Morningside Avenue","city":"Scarborough","state":"ON","zip":"M1E 3E6","country":"CA","lat":43.768868050582704,"lng":-79.18571493460081,"phone":"+1 416-724-7575"},{"id":"ca-https-locations-tacobell-ca-en-on-scarborough-34","storeNum":"https://locations.tacobe","name":"Taco Bell","address":"3495 Lawrence Avenue East","city":"Scarborough","state":"ON","zip":"M1H 1B3","country":"CA","lat":43.75748084038488,"lng":-79.22931182134383,"phone":"+1 416-439-7333"},{"id":"ca-https-locations-tacobell-ca-en-on-scarborough-15","storeNum":"https://locations.tacobe","name":"Taco Bell","address":"1571 Sandhurst Circle","city":"Scarborough","state":"ON","zip":"M1V 1V2","country":"CA","lat":43.8099457,"lng":-79.2694809,"phone":"+1 416-297-1952"},{"id":"ca-https-locations-tacobell-ca-en-on-st-catharines-","storeNum":"https://locations.tacobe","name":"Taco Bell","address":"379 Ontario Street","city":"St. Catharines","state":"ON","zip":"L2R 5Z6","country":"CA","lat":43.17552812184979,"lng":-79.26681050124073,"phone":"+1 905-684-4806"},{"id":"ca-https-locations-tacobell-ca-en-on-st-catharines-","storeNum":"https://locations.tacobe","name":"Taco Bell","address":"221 Glendale Avenue","city":"St. Catharines","state":"ON","zip":"L2T 2K9","country":"CA","lat":43.13675684389201,"lng":-79.22515227306843,"phone":"+1 905-704-0477"},{"id":"ca-https-locations-tacobell-ca-en-on-stratford-641-","storeNum":"https://locations.tacobe","name":"Taco Bell","address":"641 Erie Street","city":"Stratford","state":"ON","zip":"N5A2N9","country":"CA","lat":43.35626769676922,"lng":-80.9950975656414,"phone":"+1 519-271-1499"},{"id":"ca-https-locations-tacobell-ca-en-on-thunder-bay-11","storeNum":"https://locations.tacobe","name":"Taco Bell","address":"1101 Arthur Street West","city":"Thunder Bay","state":"ON","zip":"P7E 5S2","country":"CA","lat":48.382340505382516,"lng":-89.30818618360306,"phone":"+1 807-577-2809"},{"id":"ca-https-locations-tacobell-ca-en-on-tillsonburg-16","storeNum":"https://locations.tacobe","name":"Taco Bell","address":"166 Simcoe Street","city":"Tillsonburg","state":"ON","zip":"N2G 2J1","country":"CA","lat":42.858060706635506,"lng":-80.70691563151479,"phone":"+1 519-842-8481"},{"id":"ca-https-locations-tacobell-ca-en-on-toronto-257-co","storeNum":"https://locations.tacobe","name":"Taco Bell","address":"257 College Park St.","city":"Toronto","state":"ON","zip":"M5T 1R5","country":"CA","lat":43.65779729726701,"lng":-79.39927490773255,"phone":""},{"id":"ca-https-locations-tacobell-ca-en-on-toronto-900-du","storeNum":"https://locations.tacobe","name":"Taco Bell","address":"900 Dufferin Street","city":"Toronto","state":"ON","zip":"M6H 4B1","country":"CA","lat":43.65801820049053,"lng":-79.43493802250008,"phone":"+1 416-537-3527"},{"id":"ca-https-locations-tacobell-ca-en-on-toronto-1620-b","storeNum":"https://locations.tacobe","name":"Taco Bell","address":"1620 Birchmount Road","city":"Toronto","state":"ON","zip":"M1P 2H6","country":"CA","lat":43.7630052,"lng":-79.2920449,"phone":"+1 647-417-1443"},{"id":"ca-https-locations-tacobell-ca-en-on-toronto-4804-y","storeNum":"https://locations.tacobe","name":"Taco Bell","address":"4804 Yonge Street","city":"Toronto","state":"ON","zip":"M2N 5M9","country":"CA","lat":43.761654836945304,"lng":-79.41157292599226,"phone":"+1 647-417-0278"},{"id":"ca-https-locations-tacobell-ca-en-on-toronto-1800-s","storeNum":"https://locations.tacobe","name":"Taco Bell","address":"1800 Sheppard Ave E","city":"Toronto","state":"ON","zip":"M2J5A7","country":"CA","lat":43.7785466,"lng":-79.3431608,"phone":"+1 416-498-9950"},{"id":"ca-https-locations-tacobell-ca-en-on-toronto-3979-j","storeNum":"https://locations.tacobe","name":"Taco Bell","address":"3979 Jane St","city":"Toronto","state":"ON","zip":"M3N 2V2","country":"CA","lat":43.75615136990059,"lng":-79.51556000305844,"phone":"+1 416-631-6070"},{"id":"ca-https-locations-tacobell-ca-en-on-toronto-444-yo","storeNum":"https://locations.tacobe","name":"Taco Bell","address":"444 Yonge Street","city":"Toronto","state":"ON","zip":"M5B 2H4","country":"CA","lat":43.6609547858605,"lng":-79.38336668509663,"phone":"+1 416-596-7869"},{"id":"ca-https-locations-tacobell-ca-en-on-toronto-2300-y","storeNum":"https://locations.tacobe","name":"Taco Bell","address":"2300 Yonge Street","city":"Toronto","state":"ON","zip":"M4P 1E4","country":"CA","lat":43.70741027662568,"lng":-79.39905612150942,"phone":"+1 416-483-6544"},{"id":"ca-https-locations-tacobell-ca-en-on-toronto-6364-y","storeNum":"https://locations.tacobe","name":"Taco Bell","address":"6364 Yonge Street","city":"Toronto","state":"ON","zip":"M2M 3X4","country":"CA","lat":43.79597919236296,"lng":-79.42207313031454,"phone":"+1 416-223-4472"},{"id":"ca-https-locations-tacobell-ca-en-on-toronto-252-ch","storeNum":"https://locations.tacobe","name":"Taco Bell","address":"252 Church Street","city":"Toronto","state":"ON","zip":"M5B 0E6","country":"CA","lat":43.656142,"lng":-79.377208,"phone":"+1 416-364-2442"},{"id":"ca-https-locations-tacobell-ca-en-on-toronto-605-ro","storeNum":"https://locations.tacobe","name":"Taco Bell","address":"605 Rogers Road","city":"Toronto","state":"ON","zip":"M6M 1B9","country":"CA","lat":43.68189504549505,"lng":-79.47178347088625,"phone":"+1 437-317-3086"},{"id":"ca-https-locations-tacobell-ca-en-on-toronto-unit-f","storeNum":"https://locations.tacobe","name":"Taco Bell","address":"Unit FC11 - 3401 Dufferin St","city":"Toronto","state":"ON","zip":"M6A 2T9","country":"CA","lat":43.72558518220077,"lng":-79.45220832944773,"phone":"+1 647-925-5947"},{"id":"ca-https-locations-tacobell-ca-en-on-toronto-609-da","storeNum":"https://locations.tacobe","name":"Taco Bell","address":"609 Danforth Avenue","city":"Toronto","state":"ON","zip":"M4K 1R2","country":"CA","lat":43.67856173670062,"lng":-79.34590030613423,"phone":"+1 416-466-6174"},{"id":"ca-https-locations-tacobell-ca-en-on-toronto-65-fro","storeNum":"https://locations.tacobe","name":"Taco Bell","address":"65 Front Street West, Unit 481","city":"Toronto","state":"ON","zip":"M5J1E6","country":"CA","lat":43.644646090686344,"lng":-79.3803857615338,"phone":"+1 647-398-9420"},{"id":"ca-https-locations-tacobell-ca-en-on-toronto-1090-b","storeNum":"https://locations.tacobe","name":"Taco Bell","address":"1090 Bloor Street West","city":"Toronto","state":"ON","zip":"M6H 1M6","country":"CA","lat":43.660412,"lng":-79.433999,"phone":"+1 416-516-4645"},{"id":"ca-https-locations-tacobell-ca-en-on-vaughan-7028-y","storeNum":"https://locations.tacobe","name":"Taco Bell","address":"7028 Yonge Street","city":"Vaughan","state":"ON","zip":"L4J 1V7","country":"CA","lat":43.798607951834185,"lng":-79.42072167815206,"phone":"+1 905-707-0340"},{"id":"ca-https-locations-tacobell-ca-en-on-vaughan-1-bass","storeNum":"https://locations.tacobe","name":"Taco Bell","address":"1 Bass Pro Mills Drive","city":"Vaughan","state":"ON","zip":"L4K2M9","country":"CA","lat":43.8256585,"lng":-79.5383333,"phone":"+1 905-669-1778"},{"id":"ca-https-locations-tacobell-ca-en-on-vaughan-2268-r","storeNum":"https://locations.tacobe","name":"Taco Bell","address":"2268 Rutherford Road","city":"Vaughan","state":"ON","zip":"L4K 2N8","country":"CA","lat":43.836664725963246,"lng":-79.50894155929842,"phone":"+1 289-459-2661"},{"id":"ca-https-locations-tacobell-ca-en-on-wallaceburg-16","storeNum":"https://locations.tacobe","name":"Taco Bell","address":"1644 Dufferin Avenue","city":"Wallaceburg","state":"ON","zip":"N8A2X2","country":"CA","lat":42.59361633736912,"lng":-82.40343577240466,"phone":"+1 519-627-8593"},{"id":"ca-https-locations-tacobell-ca-en-on-wallaceburg-60","storeNum":"https://locations.tacobe","name":"Taco Bell","address":"60 McNaughton Ave","city":"Wallaceburg","state":"ON","zip":"N8A1R9","country":"CA","lat":42.5851442275935,"lng":-82.38537277534924,"phone":"+1 519-626-8595"},{"id":"ca-https-locations-tacobell-ca-en-on-wasaga-beach-2","storeNum":"https://locations.tacobe","name":"Taco Bell","address":"281 Main Street","city":"Wasaga Beach","state":"ON","zip":"L9Z 0B6","country":"CA","lat":44.523325044201,"lng":-80.00942829042052,"phone":"+1 705-422-0118"},{"id":"ca-https-locations-tacobell-ca-en-on-waterloo-391-w","storeNum":"https://locations.tacobe","name":"Taco Bell","address":"391 Weber Street North","city":"Waterloo","state":"ON","zip":"N2J 3J2","country":"CA","lat":43.48374052926042,"lng":-80.52508318245123,"phone":"+1 519-885-6680"},{"id":"ca-https-locations-tacobell-ca-en-on-waterloo-550-k","storeNum":"https://locations.tacobe","name":"Taco Bell","address":"550 King Street N.","city":"Waterloo","state":"ON","zip":"N2L 5W6","country":"CA","lat":43.49703660082604,"lng":-80.52638977495054,"phone":"+1 519-746-9109"},{"id":"ca-https-locations-tacobell-ca-en-on-welland-70-pri","storeNum":"https://locations.tacobe","name":"Taco Bell","address":"70 Primeway Drive","city":"Welland","state":"ON","zip":"L3B 0A1","country":"CA","lat":43.01430052372543,"lng":-79.22813755102732,"phone":"+1 905-714-4950"},{"id":"ca-https-locations-tacobell-ca-en-on-whitby-80-thic","storeNum":"https://locations.tacobe","name":"Taco Bell","address":"80 Thickson Rd S","city":"Whitby","state":"ON","zip":"L1N3R1","country":"CA","lat":43.88290879223512,"lng":-78.91198801892597,"phone":"+1 905-668-6151"},{"id":"ca-https-locations-tacobell-ca-en-on-windsor-1655-m","storeNum":"https://locations.tacobe","name":"Taco Bell","address":"1655 Manning Road","city":"Windsor","state":"ON","zip":"N8N 5B5","country":"CA","lat":42.307436620107,"lng":-82.87004729006026,"phone":"+1 519-735-5000"},{"id":"ca-https-locations-tacobell-ca-en-on-windsor-3100-h","storeNum":"https://locations.tacobe","name":"Taco Bell","address":"3100 Howard Ave","city":"Windsor","state":"ON","zip":"N8X3Y8","country":"CA","lat":42.27474411308236,"lng":-83.00125975666444,"phone":"+1 519-969-9028"},{"id":"ca-https-locations-tacobell-ca-en-on-windsor-1790-h","storeNum":"https://locations.tacobe","name":"Taco Bell","address":"1790 Huron Church Rd","city":"Windsor","state":"ON","zip":"N9C2L4","country":"CA","lat":42.283840924311235,"lng":-83.05519924378324,"phone":"+1 519-977-0662"},{"id":"ca-https-locations-tacobell-ca-en-on-windsor-3058-d","storeNum":"https://locations.tacobe","name":"Taco Bell","address":"3058 Dougall Ave","city":"Windsor","state":"ON","zip":"N9E1S4","country":"CA","lat":42.2717065008496,"lng":-83.01239013098855,"phone":"+1 519-966-7688"},{"id":"ca-https-locations-tacobell-ca-en-on-windsor-3419-t","storeNum":"https://locations.tacobe","name":"Taco Bell","address":"3419 Tecumseh Rd","city":"Windsor","state":"ON","zip":"N8W1H5","country":"CA","lat":42.30447670077864,"lng":-82.98149806338729,"phone":"+1 519-944-4613"},{"id":"ca-https-locations-tacobell-ca-en-on-windsor-6707-t","storeNum":"https://locations.tacobe","name":"Taco Bell","address":"6707 Tecumseh Rd E","city":"Windsor","state":"ON","zip":"N8T1E7","country":"CA","lat":42.311665029520874,"lng":-82.94302987936518,"phone":"+1 519-948-3425"},{"id":"ca-https-locations-tacobell-ca-en-on-windsor-300-te","storeNum":"https://locations.tacobe","name":"Taco Bell","address":"300 Tecumseh Rd N","city":"Windsor","state":"ON","zip":"N8N3S7","country":"CA","lat":42.297905627806536,"lng":-83.01974281349445,"phone":"+1 519-971-7268"},{"id":"ca-https-locations-tacobell-ca-en-on-windsor-301-ou","storeNum":"https://locations.tacobe","name":"Taco Bell","address":"301 Ouellette Ave","city":"Windsor","state":"ON","zip":"N9A 4J1","country":"CA","lat":42.31477303727629,"lng":-83.0362743618816,"phone":"+1 519-915-1665"},{"id":"ca-https-locations-tacobell-ca-en-on-woodbridge-443","storeNum":"https://locations.tacobe","name":"Taco Bell","address":"4431 Highway #7","city":"Woodbridge","state":"ON","zip":"L4L 5W7","country":"CA","lat":43.784008725568434,"lng":-79.5704356315148,"phone":"+1 905-264-0156"},{"id":"ca-https-locations-tacobell-ca-en-sk-regina-4440-al","storeNum":"https://locations.tacobe","name":"Taco Bell","address":"4440 Albert St.","city":"Regina","state":"SK","zip":"S4S 6B4","country":"CA","lat":50.40902137385982,"lng":-104.61942196197128,"phone":"+1 306-585-3131"},{"id":"ca-https-locations-tacobell-ca-en-sk-saskatoon-950-","storeNum":"https://locations.tacobe","name":"Taco Bell","address":"950 Melville Ave","city":"Saskatoon","state":"SK","zip":"S7T 0C9","country":"CA","lat":52.083718237553505,"lng":-106.64698476488824,"phone":"+1 306-954-4992"},{"id":"ca-https-locations-tacobell-ca-en-sk-saskatoon-1306","storeNum":"https://locations.tacobe","name":"Taco Bell","address":"1306 22nd St","city":"Saskatoon","state":"SK","zip":"S7M 0S8","country":"CA","lat":52.12947600367718,"lng":-106.68953059606606,"phone":"+1 306-952-3485"},{"id":"ca-https-locations-tacobell-ca-en-sk-saskatoon-2830","storeNum":"https://locations.tacobe","name":"Taco Bell","address":"2830 Millar Avenue","city":"Saskatoon","state":"SK","zip":"S7K 5X7","country":"CA","lat":52.17414957521899,"lng":-106.64598170259588,"phone":""},{"id":"ca-https-locations-tacobell-ca-en-sk-saskatoon-2941","storeNum":"https://locations.tacobe","name":"Taco Bell","address":"2941 8th St","city":"Saskatoon","state":"SK","zip":"S7H 0V4","country":"CA","lat":52.11517444604714,"lng":-106.61157210391232,"phone":"+1 306-952-0890"},{"id":"es-1175","storeNum":"1175","name":"Taco Bell","address":"Avda. Meritxell, 122","city":"Andorra la Vella","state":"","zip":"AD500","country":"ES","lat":42.508342,"lng":1.526662,"phone":""},{"id":"es-1087","storeNum":"1087","name":"Taco Bell","address":"C.C. Marineda City - Estrada Ba\u00f1os de Arteixo, 43","city":"A Coru\u00f1a","state":"A Coru\u00f1a","zip":"15008","country":"ES","lat":43.3451134089825,"lng":-8.42778881878489,"phone":""},{"id":"es-1038","storeNum":"1038","name":"Taco Bell","address":"R\u00faa da Senra, 7","city":"Santiago de Compostela","state":"A Coru\u00f1a","zip":"15702","country":"ES","lat":42.876750336950685,"lng":-8.5452201962471,"phone":""},{"id":"es-1128","storeNum":"1128","name":"Taco Bell","address":"C.C. As Cancelas - Avda. do Cami\u00f1o Franc\u00e9s, 3","city":"Santiago de Compostela","state":"A Coru\u00f1a","zip":"15703","country":"ES","lat":42.8889909,"lng":-8.52633429999999,"phone":""},{"id":"es-1044","storeNum":"1044","name":"Taco Bell","address":"C/ Tinte, 22","city":"Albacete","state":"Albacete","zip":"02002","country":"ES","lat":38.9923326,"lng":-1.8551164,"phone":""},{"id":"es-1065","storeNum":"1065","name":"Taco Bell","address":"Rambla M\u00e9ndez N\u00fa\u00f1ez, 23","city":"Alicante","state":"Alicante","zip":"03002","country":"ES","lat":38.3454470062133,"lng":-0.48403143882751465,"phone":""},{"id":"es-1068","storeNum":"1068","name":"Taco Bell","address":"C.C. Plaza Mar 2 - Avda. de Denia, s/n","city":"Alicante","state":"Alicante","zip":"03016","country":"ES","lat":38.35394090546317,"lng":-0.4723477363586426,"phone":""},{"id":"es-1133","storeNum":"1133","name":"Taco Bell","address":"Avda. de Antonio Ramos Carratal\u00e1, 56-60","city":"Alicante","state":"Alicante","zip":"03015","country":"ES","lat":38.3699357043199,"lng":-0.465059890214749,"phone":""},{"id":"es-1178","storeNum":"1178","name":"Taco Bell","address":"Avenida de Alcoy, 7","city":"Alicante","state":"Alicante","zip":"03503","country":"ES","lat":38.5360443,"lng":-0.1252292,"phone":""},{"id":"es-1080","storeNum":"1080","name":"Taco Bell","address":"Avda. Picasso, 41","city":"Benidorm","state":"Alicante","zip":"03509","country":"ES","lat":38.5334734,"lng":-0.1726042,"phone":""},{"id":"es-1152","storeNum":"1152","name":"Taco Bell","address":"C.C. L\u00b4Aljub - C/ Jacarilla, 7","city":"Elche","state":"Alicante","zip":"03205","country":"ES","lat":38.2621887752578,"lng":-0.720871287812645,"phone":""},{"id":"es-1150","storeNum":"1150","name":"Taco Bell","address":"C.C. La Zenia Boulevard - C/ Jade, 2","city":"Orihuela","state":"Alicante","zip":"03189","country":"ES","lat":37.9307180327309,"lng":-0.736298587824498,"phone":""},{"id":"es-1157","storeNum":"1157","name":"Taco Bell","address":"Cines Aana - Avda. Miguel Hern\u00e1ndez, 42, local 4","city":"San Juan","state":"Alicante","zip":"03550","country":"ES","lat":38.398415579439884,"lng":-0.4284761846065521,"phone":""},{"id":"es-1099","storeNum":"1099","name":"Taco Bell","address":"C.C. The Outlet Stores Alicante - C/ Alicante, 94, Local 22","city":"Sant Vicent del Raspeig","state":"Alicante","zip":"03690","country":"ES","lat":38.3828480329666,"lng":-0.5063849687576294,"phone":""},{"id":"es-1004","storeNum":"1004","name":"Taco Bell","address":"C.C. Ozone - Avda. Rosa Maz\u00f3n Valero, s/n","city":"Torrevieja","state":"Alicante","zip":"03184","country":"ES","lat":37.9908290599794,"lng":-0.681646488382692,"phone":""},{"id":"es-1187","storeNum":"1187","name":"Taco Bell","address":"Paseo de la libertad 03181 Torrevieja","city":"Torrevieja","state":"Alicante","zip":"03181","country":"ES","lat":37.973641,"lng":-0.67906,"phone":""},{"id":"es-1093","storeNum":"1093","name":"Taco Bell","address":"C.C. Torrec\u00e1rdenas - C/ M\u00e9dico Francisco P\u00e9rez Company, 19","city":"Almer\u00eda","state":"Almer\u00eda","zip":"04009","country":"ES","lat":36.86180234407324,"lng":-2.433294653892517,"phone":""},{"id":"es-1126","storeNum":"1126","name":"Taco Bell","address":"P.C. Gran Plaza Shopping - Carretera de Alic\u00fan, s/n, Local 3","city":"Roquetas de Mar","state":"Almer\u00eda","zip":"04740","country":"ES","lat":36.77518390210855,"lng":-2.6131971180438995,"phone":""},{"id":"es-1031","storeNum":"1031","name":"Taco Bell","address":"C/ C\u00e1mara, 53","city":"Avil\u00e9s","state":"Asturias","zip":"33401","country":"ES","lat":43.5586976,"lng":-5.92518299999999,"phone":""},{"id":"es-1017","storeNum":"1017","name":"Taco Bell","address":"C/ San Bernardo, 89","city":"Gij\u00f3n","state":"Asturias","zip":"33201","country":"ES","lat":43.5377797701006,"lng":-5.659782929582349,"phone":""},{"id":"es-1016","storeNum":"1016","name":"Taco Bell","address":"C.C. Parque Principado - Autov\u00eda Ruta de la Plata, Km 4, 5","city":"Paredes El Cuetu","state":"Asturias","zip":"33429","country":"ES","lat":43.3896902,"lng":-5.80430369999999,"phone":""},{"id":"es-1085","storeNum":"1085","name":"Taco Bell","address":"C.C. El Faro - Avda. Elvas s/n","city":"Badajoz","state":"Badajoz","zip":"06006","country":"ES","lat":38.8851493,"lng":-7.0201128,"phone":""},{"id":"es-1006","storeNum":"1006","name":"Taco Bell","address":"Passeig de Joan de Borb\u00f3, 21","city":"Barcelona","state":"Barcelona","zip":"08003","country":"ES","lat":41.3799022776362,"lng":2.18773689645049,"phone":""},{"id":"es-1010","storeNum":"1010","name":"Taco Bell","address":"C.C. La Maquinista - Passeig Potosi, 2","city":"Barcelona","state":"Barcelona","zip":"08030","country":"ES","lat":41.4410508826929,"lng":2.19847346813138,"phone":""},{"id":"es-1018","storeNum":"1018","name":"Taco Bell","address":"C.C. SOM Multiespai - Avinguda de R\u00edo de Janeiro, 42","city":"Barcelona","state":"Barcelona","zip":"08016","country":"ES","lat":41.43543491603245,"lng":2.1815525740385056,"phone":""},{"id":"es-1029","storeNum":"1029","name":"Taco Bell","address":"La Rambla, 96","city":"Barcelona","state":"Barcelona","zip":"08002","country":"ES","lat":41.3822244418286,"lng":2.172714024782181,"phone":""},{"id":"es-1084","storeNum":"1084","name":"Taco Bell","address":"Ronda de la Universitat, 33","city":"Barcelona","state":"Barcelona","zip":"08007","country":"ES","lat":41.387149860970474,"lng":2.167467623949051,"phone":""},{"id":"es-1095","storeNum":"1095","name":"Taco Bell","address":"Ronda Sant Pere, 3","city":"Barcelona","state":"Barcelona","zip":"08010","country":"ES","lat":41.388350218120515,"lng":2.1707171201705933,"phone":""},{"id":"es-1097","storeNum":"1097","name":"Taco Bell","address":"Carrer de Proven\u00e7a, 441","city":"Barcelona","state":"Barcelona","zip":"08025","country":"ES","lat":41.40434012092309,"lng":2.1740752458572388,"phone":""},{"id":"es-1102","storeNum":"1102","name":"Taco Bell","address":"C.C. Diagonal Mar - Avda. Diagonal, 3, Local #3560B","city":"Barcelona","state":"Barcelona","zip":"08019","country":"ES","lat":41.4102787,"lng":2.2157951,"phone":""},{"id":"es-1109","storeNum":"1109","name":"Taco Bell","address":"Carrer de Ferran, 23","city":"Barcelona","state":"Barcelona","zip":"28223","country":"ES","lat":41.3812161,"lng":2.1752036,"phone":""},{"id":"es-1142","storeNum":"1142","name":"Taco Bell","address":"C.C. Maremagnum - Molld'Espanya, 5","city":"Barcelona","state":"Barcelona","zip":"08039","country":"ES","lat":41.375546,"lng":2.1832724,"phone":""},{"id":"es-1172","storeNum":"1172","name":"Taco Bell","address":"Gran Via de les Corts Catalanes, 385","city":"Barcelona","state":"Barcelona","zip":"08015","country":"ES","lat":41.376424500120066,"lng":2.149501060501223,"phone":""},{"id":"es-1111","storeNum":"1111","name":"Taco Bell","address":"C.C. \u00c0necblau - Avda. del Canal Ol\u00edmpic, 24","city":"Castelldefels","state":"Barcelona","zip":"08860","country":"ES","lat":41.2821359,"lng":1.9855458,"phone":""},{"id":"es-1188","storeNum":"1188","name":"Taco Bell","address":"Av. Del Baix Llobregat s/n","city":"Cornella de Llobregat","state":"Barcelona","zip":"08940","country":"ES","lat":41.3475581,"lng":2.0752835,"phone":""},{"id":"es-1003","storeNum":"1003","name":"Taco Bell","address":"C.C. La Farga - Av. de Josep Tarradellas i Joan, Local 32","city":"L'Hospitalet de Llobregat","state":"Barcelona","zip":"08901","country":"ES","lat":41.362991730075684,"lng":2.104759681184234,"phone":""},{"id":"es-1104","storeNum":"1104","name":"Taco Bell","address":"C.C. Sant Boi, Carrer de les Alberedes, 2-10, Local #04","city":"Sant Boi de Llobregat","state":"Barcelona","zip":"08830","country":"ES","lat":41.332144115576355,"lng":2.0528192818164825,"phone":""},{"id":"es-1169","storeNum":"1169","name":"Taco Bell","address":"C.C. Parc Vall\u00e9s, Avda. del Textil, s/n","city":"Terrassa","state":"Barcelona","zip":"08223","country":"ES","lat":41.545934,"lng":2.026293,"phone":""},{"id":"es-1053","storeNum":"1053","name":"Taco Bell","address":"Carretera de Manlleu, 90-92","city":"Vic","state":"Barcelona","zip":"08500","country":"ES","lat":41.9453974955994,"lng":2.25883843405407,"phone":""},{"id":"es-1162","storeNum":"1162","name":"Taco Bell","address":"Avinguda d\u00b4Eduard Toldr\u00e0, 68","city":"Vilanova i la Geltr\u00fa","state":"Barcelona","zip":"08800","country":"ES","lat":41.22985675381743,"lng":1.7395681142807007,"phone":""},{"id":"es-1028","storeNum":"1028","name":"Taco Bell","address":"C.C. Max Ocio - Barrio, Kareaga Kalea, s/n","city":"Barakaldo","state":"Bizkaia","zip":"48903","country":"ES","lat":43.2875502070675,"lng":-3.00750907672679,"phone":""},{"id":"es-1015","storeNum":"1015","name":"Taco Bell","address":"C/ Licenciado Poza, 48","city":"Bilbao","state":"Bizkaia","zip":"48013","country":"ES","lat":43.262739555999,"lng":-2.94249771878951,"phone":""},{"id":"es-1021","storeNum":"1021","name":"Taco Bell","address":"C/ Buenos Aires, 13","city":"Bilbao","state":"Bizkaia","zip":"48001","country":"ES","lat":43.2616112,"lng":-2.9264727,"phone":""},{"id":"es-1027","storeNum":"1027","name":"Taco Bell","address":"C.C. Artea - C/ Barrio Peruri, 33","city":"Leioa","state":"Bizkaia","zip":"48940","country":"ES","lat":43.3421361,"lng":-2.98959,"phone":""},{"id":"es-1030","storeNum":"1030","name":"Taco Bell","address":"C.C. Ballonti - Ballonti Etorb, 1","city":"Portugalete","state":"Bizkaia","zip":"48920","country":"ES","lat":43.3110601,"lng":-3.0216808,"phone":""},{"id":"es-1020","storeNum":"1020","name":"Taco Bell","address":"Plaza Mayor, 20","city":"Burgos","state":"Burgos","zip":"09003","country":"ES","lat":42.34147856572539,"lng":-3.7014833092689514,"phone":""},{"id":"es-1186","storeNum":"1186","name":"Taco Bell","address":"C. Enrique Gran, 2","city":"Cantabria","state":"Cantabria","zip":"39600","country":"ES","lat":43.42644135,"lng":-3.840424861,"phone":""},{"id":"es-1078","storeNum":"1078","name":"Taco Bell","address":"C.C. Salera - Avda. Enrique Gimeno, 82","city":"Castell\u00f3n de la Plana","state":"Castell\u00f3n","zip":"12006","country":"ES","lat":39.979625817188314,"lng":-0.06315462291240692,"phone":""},{"id":"es-1148","storeNum":"1148","name":"Taco Bell","address":"Avda. de Francia, 42","city":"Villarreal","state":"Castell\u00f3n","zip":"12540","country":"ES","lat":39.9348123,"lng":-0.0953967,"phone":""},{"id":"es-1149","storeNum":"1149","name":"Taco Bell","address":"Avda. Antonio Hurtado, 8","city":"C\u00e1ceres","state":"C\u00e1ceres","zip":"10002","country":"ES","lat":39.4673156,"lng":-6.3782213,"phone":""},{"id":"es-1110","storeNum":"1110","name":"Taco Bell","address":"Avda. 28 de Febrero, s/n, Parcela TE3.2C U.E.5.UE.9 \"LOS PASTORES\"","city":"Algeciras","state":"C\u00e1diz","zip":"11207","country":"ES","lat":36.1114754,"lng":-5.4525839,"phone":""},{"id":"es-1170","storeNum":"1170","name":"Taco Bell","address":"Urbisur, Avda. De los Descubrimientos, 107D","city":"Chiclana de la Frontera","state":"C\u00e1diz","zip":"11130","country":"ES","lat":36.430275,"lng":-6.145348,"phone":""},{"id":"es-1120","storeNum":"1120","name":"Taco Bell","address":"C.C. Luz Shopping - Ronda Aurora Boreal, s/n, local 27D","city":"Jerez de la Frontera","state":"C\u00e1diz","zip":"11408","country":"ES","lat":36.6938944200641,"lng":-6.15984625902776,"phone":""},{"id":"es-1067","storeNum":"1067","name":"Taco Bell","address":"C.C. Bah\u00eda Sur - C/ Ca\u00f1o Herrera, s/n","city":"San Fernando","state":"C\u00e1diz","zip":"11100","country":"ES","lat":36.4725053,"lng":-6.2088984,"phone":""},{"id":"es-1056","storeNum":"1056","name":"Taco Bell","address":"C.C. El Arc\u00e1ngel - Avda. del Arc\u00e1ngel s/n","city":"C\u00f3rdoba","state":"C\u00f3rdoba","zip":"14010","country":"ES","lat":37.8781505,"lng":-4.7662257,"phone":""},{"id":"es-1057","storeNum":"1057","name":"Taco Bell","address":"Avda. del Brillante, 26","city":"C\u00f3rdoba","state":"C\u00f3rdoba","zip":"14012","country":"ES","lat":37.8981574,"lng":-4.78585249999999,"phone":""},{"id":"es-1022","storeNum":"1022","name":"Taco Bell","address":"C.C. Garbera - Garbera Zeharbidea, Garberako, 1","city":"Donosti","state":"Gipuzkoa","zip":"20017","country":"ES","lat":43.309613,"lng":-1.9431294,"phone":""},{"id":"es-1164","storeNum":"1164","name":"Taco Bell","address":"Avinguda de la Pau, 20","city":"Playa de Aro","state":"Girona","zip":"17250","country":"ES","lat":41.81516083285429,"lng":3.065170794725418,"phone":""},{"id":"es-1047","storeNum":"1047","name":"Taco Bell","address":"C.C. Espai Giron\u00e8s - Cam\u00ed dels Carlins, 10","city":"Salt","state":"Girona","zip":"17190","country":"ES","lat":41.96652444683834,"lng":2.7810510993003845,"phone":""},{"id":"es-1076","storeNum":"1076","name":"Taco Bell","address":"C.C. Nevada Shopping - C/ Hip\u00f3crates, s/n","city":"Armilla","state":"Granada","zip":"18100","country":"ES","lat":37.14497982456577,"lng":-3.614326934304384,"phone":""},{"id":"es-1092","storeNum":"1092","name":"Taco Bell","address":"C.C. Alameda - C/ Luis Bu\u00f1uel, 6","city":"Pulianas","state":"Granada","zip":"18197","country":"ES","lat":37.21289709983064,"lng":-3.6209073101923117,"phone":""},{"id":"es-1054","storeNum":"1054","name":"Taco Bell","address":"C/ Toledo, 10","city":"Guadalajara","state":"Guadalajara","zip":"19002","country":"ES","lat":40.62637020281928,"lng":-3.162068661101156,"phone":""},{"id":"es-1094","storeNum":"1094","name":"Taco Bell","address":"C.C. Holea - Ronda Exterior Zona Sur, s/n","city":"Huelva","state":"Huelva","zip":"21007","country":"ES","lat":37.272693209106826,"lng":-6.919603049755096,"phone":""},{"id":"es-1072","storeNum":"1072","name":"Taco Bell","address":"C.C. Momentum Plaza - Avda. Olivera, 4","city":"Magaluf","state":"Islas Baleares","zip":"07181","country":"ES","lat":39.5065297289116,"lng":2.53243346751534,"phone":""},{"id":"es-1069","storeNum":"1069","name":"Taco Bell","address":"C.C. Ocimax - Carrer del Bisbe Pere de Puigdorfila, 1","city":"Palma","state":"Islas Baleares","zip":"07010","country":"ES","lat":39.5954343551111,"lng":2.64846526751998,"phone":""},{"id":"es-1071","storeNum":"1071","name":"Taco Bell","address":"C.C. Fan - Carrer del Cardenal Rossell, s/n","city":"Palma","state":"Islas Baleares","zip":"07007","country":"ES","lat":39.5539944,"lng":2.7056137,"phone":""},{"id":"es-1091","storeNum":"1091","name":"Taco Bell","address":"Plaza De Espa\u00f1a, 4","city":"Palma","state":"Islas Baleares","zip":"07002","country":"ES","lat":39.5764250013433,"lng":2.65307233738063,"phone":""},{"id":"es-1147","storeNum":"1147","name":"Taco Bell","address":"C.C. Porto Pi - Avda. Gabriel Roca, 54","city":"Palma","state":"Islas Baleares","zip":"07015","country":"ES","lat":39.5511049,"lng":2.6217936,"phone":""},{"id":"es-1167","storeNum":"1167","name":"Taco Bell","address":"C.C. Ja\u00e9n Plaza - Paraje de las Lagunillas","city":"Ja\u00e9n","state":"Ja\u00e9n","zip":"23009","country":"ES","lat":37.79155,"lng":-3.77683,"phone":""},{"id":"es-1032","storeNum":"1032","name":"Taco Bell","address":"C/ Bret\u00f3n De Los Herreros, 23","city":"Logro\u00f1o","state":"La Rioja","zip":"26001","country":"ES","lat":42.4650754,"lng":-2.4493442,"phone":""},{"id":"es-1114","storeNum":"1114","name":"Taco Bell","address":"C.C. Las Arenas - Ctra. del Rinc\u00f3n, s/n","city":"Las Palmas de Gran Canaria","state":"Las Palmas","zip":"35010","country":"ES","lat":28.1291901481659,"lng":-15.4504821753292,"phone":""},{"id":"es-1117","storeNum":"1117","name":"Taco Bell","address":"C.C. Alisios - C/ Hermanos Dom\u00ednguez Santana, Carr. Nueva De San Lorenzo, 15, 308 s/n","city":"Las Palmas de Gran Canaria","state":"Las Palmas","zip":"35018","country":"ES","lat":28.0941254,"lng":-15.476901,"phone":""},{"id":"es-1155","storeNum":"1155","name":"Taco Bell","address":"C.C. Las Terrazas- Autov\u00eda GC - 1 Km (Salida 6B) Planta Baja, Local R16b","city":"Telde","state":"Las Palmas","zip":"35220","country":"ES","lat":28.028972232125145,"lng":-15.393881694510304,"phone":""},{"id":"es-1026","storeNum":"1026","name":"Taco Bell","address":"Avda. Independencia, 4","city":"Le\u00f3n","state":"Le\u00f3n","zip":"24003","country":"ES","lat":42.5975381269089,"lng":-5.57212163231886,"phone":""},{"id":"es-1059","storeNum":"1059","name":"Taco Bell","address":"Carrer del Cogul 3, Parcela Central Norte","city":"Cogul","state":"Lleida","zip":"25191","country":"ES","lat":41.61429128900039,"lng":0.6561434268951416,"phone":""},{"id":"es-1145","storeNum":"1145","name":"Taco Bell","address":"C.C. As Termas - Avda. Infanta Elena, 213","city":"Lugo","state":"Lugo","zip":"27003","country":"ES","lat":43.0368879,"lng":-7.5685421,"phone":""},{"id":"es-1116","storeNum":"1116","name":"Taco Bell","address":"Pol\u00edgono industrial La Garena - C/ Antonio Mingote, 5","city":"Alcal\u00e1 de Henares","state":"Madrid","zip":"28802","country":"ES","lat":40.4771013,"lng":-3.3929224,"phone":""},{"id":"es-1140","storeNum":"1140","name":"Taco Bell","address":"C.C. Quadernillos - Avda. Don Juan Tenorio s/n","city":"Alcal\u00e1 de Henares","state":"Madrid","zip":"28805","country":"ES","lat":40.5055867,"lng":-3.3310976,"phone":""},{"id":"es-1048","storeNum":"1048","name":"Taco Bell","address":"C.C. Alcora Plaza - Avda. de Europa, 22","city":"Alcorc\u00f3n","state":"Madrid","zip":"28922","country":"ES","lat":40.34453229999999,"lng":-3.8543307,"phone":""},{"id":"es-1050","storeNum":"1050","name":"Taco Bell","address":"Avda. Primero de Mayo - C/ Bucraa, 2","city":"Alcorc\u00f3n","state":"Madrid","zip":"28922","country":"ES","lat":40.3283225,"lng":-3.8364302,"phone":""},{"id":"es-1055","storeNum":"1055","name":"Taco Bell","address":"C.C. Plaza Loranca 2 - Avda. de Pablo Iglesias, 17, Local 123","city":"Alcorc\u00f3n","state":"Madrid","zip":"28942","country":"ES","lat":40.30333587258632,"lng":-3.832147498070082,"phone":""},{"id":"es-1064","storeNum":"1064","name":"Taco Bell","address":"C.C. TresAguas - Avda. de Am\u00e9rica, 7-9","city":"Alcorc\u00f3n","state":"Madrid","zip":"28922","country":"ES","lat":40.357968332137965,"lng":-3.8325977325439453,"phone":""},{"id":"es-1096","storeNum":"1096","name":"Taco Bell","address":"C.C. Intu Xanad\u00fa - C/Puerto de Navacerrada, s/n - Autov\u00eda A-5, Km. 23, 5","city":"Arroyomolinos","state":"Madrid","zip":"28939","country":"ES","lat":40.2997677569267,"lng":-3.92613521296307,"phone":""},{"id":"es-1112","storeNum":"1112","name":"Taco Bell","address":"C.C. el Ventanal de la Sierra - Avda. De la Tejera, 2","city":"Colmenar Viejo","state":"Madrid","zip":"28770","country":"ES","lat":40.659206,"lng":-3.7548759,"phone":""},{"id":"es-1058","storeNum":"1058","name":"Taco Bell","address":"C.C. Plaza de la Estaci\u00f3n - C/ Hungr\u00eda, 8, Local 6, Planta alta","city":"Fuenlabrada","state":"Madrid","zip":"28943","country":"ES","lat":40.283717293607005,"lng":-3.801712766289711,"phone":""},{"id":"es-1000","storeNum":"1000","name":"Taco Bell","address":"C.C. Nassica - Av. R\u00edo Guadalquivir 13, local Amp 15","city":"Getafe","state":"Madrid","zip":"28906","country":"ES","lat":40.2728013383285,"lng":-3.6957326531410217,"phone":""},{"id":"es-1159","storeNum":"1159","name":"Taco Bell","address":"C/ Madrid, 41","city":"Getafe","state":"Madrid","zip":"28901","country":"ES","lat":40.30721184206218,"lng":-3.730396283526829,"phone":""},{"id":"es-1039","storeNum":"1039","name":"Taco Bell","address":"C.C. Heron-City Las Rozas - C/Camilo Jos\u00e9 Cela, 2 Local 4","city":"Las Rozas","state":"Madrid","zip":"28232","country":"ES","lat":40.5164549347665,"lng":-3.89818333190335,"phone":""},{"id":"es-1008","storeNum":"1008","name":"Taco Bell","address":"C.C. Westfield Parquesur - Avda. Gran Bretana, s/n","city":"Legan\u00e9s","state":"Madrid","zip":"28916","country":"ES","lat":40.339094550618306,"lng":-3.7336134910583496,"phone":""},{"id":"es-1049","storeNum":"1049","name":"Taco Bell","address":"Plaza De La Fuente Honda, 9-10","city":"Legan\u00e9s","state":"Madrid","zip":"28911","country":"ES","lat":40.3283919,"lng":-3.7664032,"phone":""},{"id":"es-1079","storeNum":"1079","name":"Taco Bell","address":"C.C. Sambil Outlet Madrid - C/ Mondrag\u00f3n, s/n","city":"Legan\u00e9s","state":"Madrid","zip":"28917","country":"ES","lat":40.35905771118159,"lng":-3.7759441137313843,"phone":""},{"id":"es-1011","storeNum":"1011","name":"Taco Bell","address":"C/ Princesa, 3","city":"Madrid","state":"Madrid","zip":"28008","country":"ES","lat":40.424966083381015,"lng":-3.7124723196029663,"phone":""},{"id":"es-1014","storeNum":"1014","name":"Taco Bell","address":"C/ Hilario Herranz Establos, 12","city":"Madrid","state":"Madrid","zip":"28054","country":"ES","lat":40.37260089999999,"lng":-3.7294469,"phone":""},{"id":"es-1042","storeNum":"1042","name":"Taco Bell","address":"C/ Preciados, 29","city":"Madrid","state":"Madrid","zip":"28013","country":"ES","lat":40.419565180638756,"lng":-3.706362247467041,"phone":""},{"id":"es-1062","storeNum":"1062","name":"Taco Bell","address":"C.C. La Gavia - C/ Adolfo Bioy Casares 2, Local A00011","city":"Madrid","state":"Madrid","zip":"28051","country":"ES","lat":40.3693421769119,"lng":-3.59918907608474,"phone":""},{"id":"es-1070","storeNum":"1070","name":"Taco Bell","address":"C.C. Islazul - C/ Calderilla, 1","city":"Madrid","state":"Madrid","zip":"28054","country":"ES","lat":40.36343583687187,"lng":-3.738571416582299,"phone":""},{"id":"es-1077","storeNum":"1077","name":"Taco Bell","address":"C/ Montera, 45","city":"Madrid","state":"Madrid","zip":"28013","country":"ES","lat":40.419462058995435,"lng":-3.7019889056682587,"phone":""},{"id":"es-1083","storeNum":"1083","name":"Taco Bell","address":"C.C. La Vaguada - Avda. de Monforte de Lemos, 36","city":"Madrid","state":"Madrid","zip":"28029","country":"ES","lat":40.47943478627564,"lng":-3.7084490060806274,"phone":""},{"id":"es-1086","storeNum":"1086","name":"Taco Bell","address":"Paseo de la Castellana, 191","city":"Madrid","state":"Madrid","zip":"28046","country":"ES","lat":40.46740575188467,"lng":-3.689635992050171,"phone":""},{"id":"es-1089","storeNum":"1089","name":"Taco Bell","address":"C/ Isaac Peral, 4","city":"Madrid","state":"Madrid","zip":"28015","country":"ES","lat":40.43527253846008,"lng":-3.718133121728897,"phone":""},{"id":"es-1100","storeNum":"1100","name":"Taco Bell","address":"Plaza Emperador Carlos V, 11","city":"Madrid","state":"Madrid","zip":"28012","country":"ES","lat":40.4089714,"lng":-3.6925985,"phone":""},{"id":"es-1105","storeNum":"1105","name":"Taco Bell","address":"Avda. Concha Espina, 6","city":"Madrid","state":"Madrid","zip":"28036","country":"ES","lat":40.45178529999999,"lng":-3.6888863,"phone":""},{"id":"es-1106","storeNum":"1106","name":"Taco Bell","address":"Pol\u00edgono Industrial Las Mercedes - C/ Campezo, 7","city":"Madrid","state":"Madrid","zip":"28022","country":"ES","lat":40.4443797272433,"lng":-3.58198233821839,"phone":""},{"id":"es-1118","storeNum":"1118","name":"Taco Bell","address":"C/ Arenal, 6","city":"Madrid","state":"Madrid","zip":"28013","country":"ES","lat":40.41709489999999,"lng":-3.7052886,"phone":""},{"id":"es-1121","storeNum":"1121","name":"Taco Bell","address":"C.C. Pr\u00edncipe P\u00edo - Paseo de la Florida, 2","city":"Madrid","state":"Madrid","zip":"28008","country":"ES","lat":40.4219701622345,"lng":-3.72087018825718,"phone":""},{"id":"es-1123","storeNum":"1123","name":"Taco Bell","address":"C/ Pr\u00edncipe Carlos, 50","city":"Madrid","state":"Madrid","zip":"28050","country":"ES","lat":40.49384312179866,"lng":-3.6557865142822266,"phone":""},{"id":"es-1124","storeNum":"1124","name":"Taco Bell","address":"C.C. Palacio de Hielo - C/ de Silvano, 77","city":"Madrid","state":"Madrid","zip":"28043","country":"ES","lat":40.4633608261276,"lng":-3.63732334592675,"phone":""},{"id":"es-1127","storeNum":"1127","name":"Taco Bell","address":"C/ Mayor, 4","city":"Madrid","state":"Madrid","zip":"28013","country":"ES","lat":40.41660059999999,"lng":-3.7050768,"phone":""},{"id":"es-1129","storeNum":"1129","name":"Taco Bell","address":"C.C. Plenilunio - C/ de Aracne, s/n","city":"Madrid","state":"Madrid","zip":"28022","country":"ES","lat":40.44688175719077,"lng":-3.5872501999980977,"phone":""},{"id":"es-1135","storeNum":"1135","name":"Taco Bell","address":"Avda. de los Poblados, 189 (esq. Avda. de Andaluc\u00eda)","city":"Madrid","state":"Madrid","zip":"28041","country":"ES","lat":40.3710218,"lng":-3.69516529999999,"phone":""},{"id":"es-1137","storeNum":"1137","name":"Taco Bell","address":"C/ Alcal\u00e1, 490","city":"Madrid","state":"Madrid","zip":"28027","country":"ES","lat":40.4398875,"lng":-3.6297359,"phone":""},{"id":"es-1141","storeNum":"1141","name":"Taco Bell","address":"Paseo de Extremadura, 133","city":"Madrid","state":"Madrid","zip":"28011","country":"ES","lat":40.41029585345157,"lng":-3.7372183799743652,"phone":""},{"id":"es-1160","storeNum":"1160","name":"Taco Bell","address":"C.C. Ciudad Tres Cantos - Avda. de los Labradores 9-11","city":"Madrid","state":"Madrid","zip":"28760","country":"ES","lat":40.59987,"lng":-3.70766,"phone":""},{"id":"es-1168","storeNum":"1168","name":"Taco Bell","address":"Calle Goya, 54","city":"Madrid","state":"Madrid","zip":"28001","country":"ES","lat":40.424659805598935,"lng":-3.678186312317848,"phone":""},{"id":"es-1173","storeNum":"1173","name":"Taco Bell","address":"Av. de la Albufera, 1","city":"Madrid","state":"Madrid","zip":"28038","country":"ES","lat":40.3983279,"lng":-3.6687441,"phone":""},{"id":"es-1174","storeNum":"1174","name":"Taco Bell","address":"Av. del Ca\u00f1al, 25","city":"Madrid","state":"Madrid","zip":"28500","country":"ES","lat":40.3100441,"lng":-3.4806109,"phone":""},{"id":"es-1176","storeNum":"1176","name":"Taco Bell","address":"Av. del Manzanares, 210","city":"Madrid","state":"Madrid","zip":"28026","country":"ES","lat":40.390858,"lng":-3.701464,"phone":""},{"id":"es-1179","storeNum":"1179","name":"Taco Bell","address":"C/ Alcal\u00e1, 358","city":"Madrid","state":"Madrid","zip":"28027","country":"ES","lat":40.43502596994974,"lng":-3.64391850469105,"phone":""},{"id":"es-1181","storeNum":"1181","name":"Taco Bell","address":"V\u00eda de las Dos Castillas, 15","city":"Madrid","state":"Madrid","zip":"28224","country":"ES","lat":40.4341133,"lng":-3.7982198,"phone":""},{"id":"es-1182","storeNum":"1182","name":"Taco Bell","address":"Calle Alcalde Luis Marichalar, 5","city":"Madrid","state":"Madrid","zip":"28030","country":"ES","lat":40.41142,"lng":-3.6587439,"phone":""},{"id":"es-1183","storeNum":"1183","name":"Taco Bell","address":"C/ Conde de Pe\u00f1alver, 86, esq. Maldonado, 56","city":"Madrid","state":"Madrid","zip":"28006","country":"ES","lat":40.43339867,"lng":-3.674840521,"phone":""},{"id":"es-1005","storeNum":"1005","name":"Taco Bell","address":"C.C. Gran Plaza 2 - C/ de los Qu\u00edmicos, 2","city":"Majadahonda","state":"Madrid","zip":"28222","country":"ES","lat":40.49109089999999,"lng":-3.8974616,"phone":""},{"id":"es-1063","storeNum":"1063","name":"Taco Bell","address":"C.C. Equinoccio Park - C/ Fresa, 2","city":"Majadahonda","state":"Madrid","zip":"28222","country":"ES","lat":40.4554473,"lng":-3.87466219999999,"phone":""},{"id":"es-1136","storeNum":"1136","name":"Taco Bell","address":"Carretera de Boadilla del Monte, 2","city":"Majadahonda","state":"Madrid","zip":"28220","country":"ES","lat":40.46836944626947,"lng":-3.870915084720832,"phone":""},{"id":"es-1045","storeNum":"1045","name":"Taco Bell","address":"C/ N\u00e1poles, 10, esquina Alfonso XII","city":"M\u00f3stoles","state":"Madrid","zip":"28938","country":"ES","lat":40.313701773235756,"lng":-3.8671016693115234,"phone":""},{"id":"es-1052","storeNum":"1052","name":"Taco Bell","address":"C/ Toledo, 40","city":"Parla","state":"Madrid","zip":"28981","country":"ES","lat":40.22888469999999,"lng":-3.77780359999999,"phone":""},{"id":"es-1108","storeNum":"1108","name":"Taco Bell","address":"C.C. H2O - C/ Marie Curie, 4","city":"Rivas Vaciamadrid","state":"Madrid","zip":"28521","country":"ES","lat":40.33579063582344,"lng":-3.527437448501587,"phone":""},{"id":"es-1163","storeNum":"1163","name":"Taco Bell","address":"C.C. Las Rosas - Avda. de Guadalajara, 2","city":"San Blas \u2013 Canillejas","state":"Madrid","zip":"28032","country":"ES","lat":40.4193,"lng":-3.62112,"phone":""},{"id":"es-1081","storeNum":"1081","name":"Taco Bell","address":"C.C. Plaza Norte 2 - Avda. del Juncal, 11","city":"San Sebasti\u00e1n de los Reyes","state":"Madrid","zip":"28703","country":"ES","lat":40.54084911391993,"lng":-3.6135122179985046,"phone":""},{"id":"es-1132","storeNum":"1132","name":"Taco Bell","address":"C.C. Alegra - C/ Salvador de Madariaga, s/n","city":"San Sebasti\u00e1n de los Reyes","state":"Madrid","zip":"28702","country":"ES","lat":40.5664219,"lng":-3.609063263116,"phone":""},{"id":"es-1082","storeNum":"1082","name":"Taco Bell","address":"Avda. de la Constituci\u00f3n, 110","city":"Torrej\u00f3n de Ardoz","state":"Madrid","zip":"28850","country":"ES","lat":40.45845628700219,"lng":-3.4659209847450256,"phone":""},{"id":"es-1156","storeNum":"1156","name":"Taco Bell","address":"C.C. Parque Corredor - Carretera Torrej\u00f3n a Ajalvir, s/n","city":"Torrej\u00f3n de Ardoz","state":"Madrid","zip":"28850","country":"ES","lat":40.4783167512592,"lng":-3.47880758266769,"phone":""},{"id":"es-1002","storeNum":"1002","name":"Taco Bell","address":"C.C. Espacio Mediterr\u00e1neo - C/ Riga, 87, Parcela 8.7 (Pol\u00edgono Industrial Cabezo Baeza)","city":"Cartagena","state":"Murcia","zip":"30353","country":"ES","lat":37.624361198960585,"lng":-0.9502315521240234,"phone":""},{"id":"es-1009","storeNum":"1009","name":"Taco Bell","address":"C.C Nueva Condomina - A7, Km 760, Autov\u00eda del Mediterr\u00e1neo","city":"Churra","state":"Murcia","zip":"30110","country":"ES","lat":38.04030077547695,"lng":-1.1478298902511597,"phone":""},{"id":"es-1066","storeNum":"1066","name":"Taco Bell","address":"C.C. Thader - Avda. Juan de Borb\u00f3n, s/n","city":"Churra","state":"Murcia","zip":"30110","country":"ES","lat":38.0314053,"lng":-1.1494274,"phone":""},{"id":"es-1158","storeNum":"1158","name":"Taco Bell","address":"C.C. Vega Plaza - Avda. de Granada, s/n","city":"Molina de Segura","state":"Murcia","zip":"30500","country":"ES","lat":38.05591,"lng":-1.21692,"phone":""},{"id":"es-1180","storeNum":"1180","name":"Taco Bell","address":"Avda. de Velazquez 241, Crtra. de C\u00e1diz","city":"Malaga","state":"M\u00e1laga","zip":"29004","country":"ES","lat":36.6872214,"lng":-4.4592771,"phone":""},{"id":"es-1184","storeNum":"1184","name":"Taco Bell","address":"C/ Ja\u00e9n, 3 - Crtra. de C\u00e1diz","city":"Malaga","state":"M\u00e1laga","zip":"29004","country":"ES","lat":36.68647855,"lng":-4.471071159,"phone":""},{"id":"es-1122","storeNum":"1122","name":"Taco Bell","address":"C.C. La Ca\u00f1ada Shopping - C/ Oj\u00e9n, s/n","city":"Marbella","state":"M\u00e1laga","zip":"29603","country":"ES","lat":36.5214333020543,"lng":-4.87453050379889,"phone":""},{"id":"es-1007","storeNum":"1007","name":"Taco Bell","address":"C.C. Vialia Estaci\u00f3n Mar\u00eda Zambrano - C/ Explanada de la Estaci\u00f3n, s/n, local B1- 14A","city":"M\u00e1laga","state":"M\u00e1laga","zip":"29002","country":"ES","lat":36.71194474762287,"lng":-4.432841241359711,"phone":""},{"id":"es-1113","storeNum":"1113","name":"Taco Bell","address":"C.C. Plaza Mayor - C/ Alfonso Ponce de Le\u00f3n, 3","city":"M\u00e1laga","state":"M\u00e1laga","zip":"29004","country":"ES","lat":36.65681439776384,"lng":-4.478487074375153,"phone":""},{"id":"es-1130","storeNum":"1130","name":"Taco Bell","address":"C.C. Larios Centro - Avda. de la Aurora, 25","city":"M\u00e1laga","state":"M\u00e1laga","zip":"29002","country":"ES","lat":36.7160482779018,"lng":-4.43272447495352,"phone":""},{"id":"es-1037","storeNum":"1037","name":"Taco Bell","address":"C.C. La Morea - Barrio La Morea s/n","city":"Cordovilla","state":"Navarra","zip":"31191","country":"ES","lat":42.7847919,"lng":-1.6312986,"phone":""},{"id":"es-1012","storeNum":"1012","name":"Taco Bell","address":"Plaza Pintor Paret, 1","city":"Pamplona","state":"Navarra","zip":"31008","country":"ES","lat":42.80835571466168,"lng":-1.660110354423523,"phone":""},{"id":"es-1146","storeNum":"1146","name":"Taco Bell","address":"C.C. Ponte Vella - Avda. Ribeira Sacra, 48","city":"Ourense","state":"Ourense","zip":"32003","country":"ES","lat":42.3447434,"lng":-7.8653781,"phone":""},{"id":"es-1035","storeNum":"1035","name":"Taco Bell","address":"P.C. Arambol - Avda. Brasilia, 1","city":"Palencia","state":"Palencia","zip":"34004","country":"ES","lat":42.0122258,"lng":-4.51954829999999,"phone":""},{"id":"es-1023","storeNum":"1023","name":"Taco Bell","address":"C.C. Vialia Estaci\u00f3n de Vigo - Praza Estaci\u00f3n, 1","city":"Vigo","state":"Pontevedra","zip":"36201","country":"ES","lat":42.235395824132915,"lng":-8.710331618785858,"phone":""},{"id":"es-1033","storeNum":"1033","name":"Taco Bell","address":"C/ Concejo, 5","city":"Salamanca","state":"Salamanca","zip":"37002","country":"ES","lat":40.9657186,"lng":-5.664469,"phone":""},{"id":"es-1019","storeNum":"1019","name":"Taco Bell","address":"Ctra. Madrid, 4","city":"Santa Marta de Tormes","state":"Salamanca","zip":"37900","country":"ES","lat":40.9505222933229,"lng":-5.652573108673096,"phone":""},{"id":"es-1115","storeNum":"1115","name":"Taco Bell","address":"C.C. Meridiano - Avda. Manuel Hermoso Rojas, 16","city":"Santa Cruz de Tenerife","state":"Santa Cruz de Tenerife","zip":"38005","country":"ES","lat":28.457907727412,"lng":-16.2580101329882,"phone":""},{"id":"es-1107","storeNum":"1107","name":"Taco Bell","address":"C.C. Parque Guada\u00edra. Local L1-L2-L3. Avda. Pr\u00edncipe de Asturias N\u00ba 2","city":"Alcal\u00e1 de Guada\u00edra","state":"Sevilla","zip":"41500","country":"ES","lat":37.3531688,"lng":-5.859145,"phone":""},{"id":"es-1143","storeNum":"1143","name":"Taco Bell","address":"C.C. Sevilla Factory Dos Hermanas - Avda. 4 de Diciembre","city":"Dos Hermanas","state":"Sevilla","zip":"41703","country":"ES","lat":37.28806,"lng":-5.9424493,"phone":""},