internal_id,store_id,name,address,city,region,postal_code,country,latitude,longitude,phone,source_url
au-au-https-tacobell-com-au-albion-park,au-https-tacobell-com-au-albion-park,Taco Bell Albion Park,"Shop 3, 61 Princes Highway, ALBION PARK NSW 2527",Wollongong,New South Wales,2527,AU,-34.5529551,150.7901661,+61 2 4257 3673,https://tacobell.com.au/albion/park/
au-au-https-tacobell-com-au-annerley,au-https-tacobell-com-au-annerley,Taco Bell Annerley,"594 Ipswich Road, Annerley QLD, 4103",Brisbane,Queensland,4103,AU,-27.5147964,153.0311675,+61 7 3848 4531,https://tacobell.com.au/annerley/
au-au-https-tacobell-com-au-ballina,au-https-tacobell-com-au-ballina,Taco Bell Ballina,"95 Fox Street, BALLINA NSW 2478",Ballina,New South Wales,2478,AU,-28.8598964,153.5599001,+61 2 5630 1377,https://tacobell.com.au/ballina/
au-au-https-tacobell-com-au-beenleigh,au-https-tacobell-com-au-beenleigh,Taco Bell Beenleigh,"151 George Street, Beenleigh QLD 4207",Brisbane,Queensland,4207,AU,-27.7161471,153.2069993,+61 7 2899 6625,https://tacobell.com.au/beenleigh/
au-au-https-tacobell-com-au-berwick-south,au-https-tacobell-com-au-berwick-south,Taco Bell Berwick South,"254 Clyde Road, Berwick South VIC 3806",Melbourne,Victoria,3806,AU,-38.0566017,145.3386617,+61 3 8902 7620,https://tacobell.com.au/berwick/south/
au-au-https-tacobell-com-au-blacktown-sports-park,au-https-tacobell-com-au-blacktown-sports-park,Taco Bell Blacktown Sports Park,"100 Eastern Road Rooty Hill, NSW 2766",Sydney,New South Wales,2766,AU,-33.7709150,150.8590700,+61 2 7204 7708,https://tacobell.com.au/blacktown/sports/park/
au-au-https-tacobell-com-au-butler,au-https-tacobell-com-au-butler,Taco Bell Butler,"Tenancy 1, 40 Butler Boulevard, Butler WA 6036",,Western Australia,6036,AU,-31.6388634,115.6950403,+61 8 6207 3440,https://tacobell.com.au/butler/
au-au-https-tacobell-com-au-canning-vale,au-https-tacobell-com-au-canning-vale,Taco Bell Canning Vale,"459 Nicholson Road, Canning Vale WA 6155",Perth,Western Australia,6155,AU,-32.0633160,115.9357417,+61 8 9449 7010,https://tacobell.com.au/canning/vale/
au-au-https-tacobell-com-au-chatswood-interchange,au-https-tacobell-com-au-chatswood-interchange,Taco Bell Chatswood Interchange,"11/436 Victoria Avenue, Chatswood NSW 2067",Sydney,New South Wales,2067,AU,-33.7971841,151.1811128,+61 2 7233 2554,https://tacobell.com.au/chatswood/interchange/
au-au-https-tacobell-com-au-chirnside-park,au-https-tacobell-com-au-chirnside-park,Taco Bell Chirnside Park,"266-268 Maroondah Highway, Chirnside Park, VIC, 3116",Melbourne,Victoria,3116,AU,-37.7644427,145.3082256,+61 3 7303 2310,https://tacobell.com.au/chirnside/park/
au-au-https-tacobell-com-au-coomera-south,au-https-tacobell-com-au-coomera-south,Taco Bell Coomera South,"Cnr Foxwell Rd & Creek Rd, Coomera South 4209 | Opposite Westfield Coomera!, .",,Queensland,4209,AU,-27.8556725,153.3144557,+61 7 5675 7635,https://tacobell.com.au/coomera/south/
au-au-https-tacobell-com-au-coorparoo,au-https-tacobell-com-au-coorparoo,Taco Bell Coorparoo,"208 Old Cleveland Road, Coorparoo QLD 4151",Brisbane,Queensland,4151,AU,-27.4965768,153.0541820,+61 7 2899 6670,https://tacobell.com.au/coorparoo/
au-au-https-tacobell-com-au-dandenong-south,au-https-tacobell-com-au-dandenong-south,Taco Bell Dandenong South,"1 Assembly Drive, Dandenong South, VIC 3175",Melbourne,Victoria,3175,AU,-38.0038121,145.2481034,+61 3 8902 7610,https://tacobell.com.au/dandenong/south/
au-au-https-tacobell-com-au-east-ipswich,au-https-tacobell-com-au-east-ipswich,Taco Bell East Ipswich,"70 Brisbane Road, East Ipswich QLD 4305",Brisbane,Queensland,4305,AU,-27.6126220,152.7810858,+61 7 3813 4005,https://tacobell.com.au/east/ipswich/
au-au-https-tacobell-com-au-ellenbrook-north,au-https-tacobell-com-au-ellenbrook-north,Taco Bell Ellenbrook North,"Lot 2 The Promenade, Ellenbrook, WA 6069",,Western Australia,6069,AU,-31.7809348,115.9724328,+61 8 6207 3425,https://tacobell.com.au/ellenbrook/north/
au-au-https-tacobell-com-au-emerald-hills,au-https-tacobell-com-au-emerald-hills,Taco Bell Emerald Hills,"5 Raby Road, Leppington NSW 2179",Sydney,New South Wales,2179,AU,-33.9951434,150.7897899,+61 2 7205 6040,https://tacobell.com.au/emerald/hills/
au-au-https-tacobell-com-au-greensquare,au-https-tacobell-com-au-greensquare,Taco Bell Greensquare,"103/305 Botany Road, ZETLAND NSW 2017",Sydney,New South Wales,2017,AU,-33.9060869,151.2033204,+61 2 7204 0650,https://tacobell.com.au/greensquare/
au-au-https-tacobell-com-au-hawthorn,au-https-tacobell-com-au-hawthorn,Taco Bell Hawthorn,"650-652 Glenferrie Road, Hawthorn VIC 3122",Melbourne,Victoria,3122,AU,-37.8218362,145.0360071,+61 3 9825 8210,https://tacobell.com.au/hawthorn/
au-au-https-tacobell-com-au-haymarket,au-https-tacobell-com-au-haymarket,Taco Bell Haymarket,"815 George Street, HAYMARKET NSW 2000",Sydney,New South Wales,2000,AU,-33.8827860,151.2034160,+61 2 7204 7730,https://tacobell.com.au/haymarket/
au-au-https-tacobell-com-au-hoppers-crossing,au-https-tacobell-com-au-hoppers-crossing,Taco Bell Hoppers Crossing,"88 Derrimut Road, Hoppers Crossing VIC 3029",Melbourne,Victoria,3029,AU,-37.8811027,144.6826120,+61 3 9825 8220,https://tacobell.com.au/hoppers/crossing/
au-au-https-tacobell-com-au-jesmond,au-https-tacobell-com-au-jesmond,Taco Bell Jesmond,"Shop 60, Stockland Jesmond Shopping Centre. 28 Blue Gum Road, JESMOND NSW 2299",Newcastle,New South Wales,2299,AU,-32.9027249,151.6903433,+61 2 4950 1035,https://tacobell.com.au/jesmond/
au-au-https-tacobell-com-au-logan-central,au-https-tacobell-com-au-logan-central,Taco Bell Logan Central,"26 Wembley Road, Logan Central QLD 4114",Logan City,Queensland,4114,AU,-27.6424663,153.1156422,+61 7 2899 6605,https://tacobell.com.au/logan/central/
au-au-https-tacobell-com-au-midland,au-https-tacobell-com-au-midland,Taco Bell Midland,"226 Great Eastern Highway, Midland WA 6056",Perth,Western Australia,6056,AU,-31.8915000,116.0145200,+61 8 6207 3415,https://tacobell.com.au/midland/
au-au-https-tacobell-com-au-morayfield,au-https-tacobell-com-au-morayfield,Taco Bell Morayfield,"182-190 Morayfield Road, Morayfield QLD 4506",Brisbane,Queensland,4506,AU,-27.1049340,152.9469698,+61 7 5294 9715,https://tacobell.com.au/morayfield/
au-au-https-tacobell-com-au-north-lakes,au-https-tacobell-com-au-north-lakes,Taco Bell North Lakes,"Cnr 144 Flinders Parade & Diamond Jubilee Way, North Lakes QLD 4509",North Lakes,Queensland,4509,AU,-27.2147578,152.9993628,+61 7 3351 9505,https://tacobell.com.au/north/lakes/
au-au-https-tacobell-com-au-roxburghpark,au-https-tacobell-com-au-roxburghpark,Taco Bell Roxburgh Park,"260 Somerton Rd, Roxburgh Park VIC 3064",Melbourne,Victoria,3064,AU,-37.6407311,144.9297489,+61 3 7303 2305,https://tacobell.com.au/roxburghpark/
au-au-https-tacobell-com-au-south-yarra,au-https-tacobell-com-au-south-yarra,Taco Bell South Yarra,"352 Chapel Street, South Yarra VIC 3141",Melbourne,Victoria,3141,AU,-37.8465856,144.9943680,+61 3 9825 8205,https://tacobell.com.au/south/yarra/
au-au-https-tacobell-com-au-blacktown,au-https-tacobell-com-au-blacktown,Taco Bell Westpoint Blacktown,"Level 3, Westpoint Shopping Centre, 17 Patrick Street, BLACKTOWN NSW 2148",Sydney,New South Wales,2148,AU,-33.7697320,150.9065750,+61 2 9621 1263,https://tacobell.com.au/blacktown/
br-br-6858489114,br-6858489114,Taco Bell,km 225 Rodovia Presidente Dutra,Guarulhos,São Paulo,07034-911,BR,-23.4881727,-46.5490641,,
br-br-9717868719,br-9717868719,Taco Bell,91 Rua Domingos Agostim,São Paulo,São Paulo,03314-030,BR,-23.5413986,-46.5765582,,
br-br-11592591879,br-11592591879,Taco Bell,Avenida José de Souza Campos,Campinas,São Paulo,13092-123,BR,-22.8968265,-47.0468716,,
br-br-11979572409,br-11979572409,Taco Bell,1089 Avenida Roque Petroni Júnior,São Paulo,São Paulo,04707-900,BR,-23.6229673,-46.6983642,,
br-br-13641503908,br-13641503908,Taco Bell,Avenida Industrial,Santo André,São Paulo,09090-770,BR,-23.6495424,-46.5314480,,
br-br-10057477116,br-10057477116,Taco Bell,"3º Piso Rua 15 de Novembro, 8",Niterói,,24020125,BR,-22.8971200,-43.1239333,,
br-br-13533263517,br-13533263517,Taco Bell,400 Praia de Botafogo,Rio de Janeiro,,,BR,-22.9473509,-43.1827806,,
ca-ca-https-locations-tacobell-ca-en-ab-calgary-751-3r,ca-https-locations-tacobell-ca-en-ab-calgary-751-3r,Taco Bell,751 3rd Street SW,Calgary,AB,T2P 4K8,CA,51.0461196,-114.0709199,+1 403-263-0346,https://locations.tacobell.ca/en/ab/calgary/751/3r
ca-ca-https-locations-tacobell-ca-en-ab-calgary-12222,ca-https-locations-tacobell-ca-en-ab-calgary-12222-,Taco Bell,12222 Symons Valley Road NW,Calgary,AB,T3P 0A3,CA,51.1630962,-114.1267444,+1 403-516-1582,https://locations.tacobell.ca/en/ab/calgary/12222/
ca-ca-https-locations-tacobell-ca-en-ab-calgary-3310-3,ca-https-locations-tacobell-ca-en-ab-calgary-3310-3,Taco Bell,3310 32nd Street NE,Calgary,AB,T1Y 6B9,CA,51.0819148,-113.9882780,+1 403-250-1842,https://locations.tacobell.ca/en/ab/calgary/3310/3
ca-ca-https-locations-tacobell-ca-en-ab-calgary-1595-3,ca-https-locations-tacobell-ca-en-ab-calgary-1595-3,Taco Bell,1595 32 Ave NE,Calgary,AB,T2E 8P5,CA,51.0811394,-114.0242446,+1 403-230-0061,https://locations.tacobell.ca/en/ab/calgary/1595/3
ca-ca-https-locations-tacobell-ca-en-ab-cold-lake-6603,ca-https-locations-tacobell-ca-en-ab-cold-lake-6603,Taco Bell,6603 51st. Street,Cold Lake,AB,T9M 1C8,CA,54.4325049,-110.2061292,+1 780-639-3270,https://locations.tacobell.ca/en/ab/cold/lake/6603
ca-27896c11-8b5c-db57-6607-fe7e2bbdcf93,27896c11-8b5c-db57-6607-fe7e2bbdcf93,Taco Bell Terwillegar,14311-23rd Avenue Edmonton AB T6R 3E7,"Santa Monica, CA, USA",,,CA,53.4536590,-113.5684310,780-988-8000,https://www.tacobell.ca/en/store-locator#27896c11-8b5c-db57-6607-fe7e2bbdcf93
ca-95b322f7-1f7a-29b4-e9a6-8c32344209e9,95b322f7-1f7a-29b4-e9a6-8c32344209e9,Taco Bell Ellerslie,9260 Ellerslie Road SW Edmonton AB T6X 0K6,"Santa Monica, CA, USA",,,CA,53.4255880,-113.4765710,780-485-1474,https://www.tacobell.ca/en/store-locator#95b322f7-1f7a-29b4-e9a6-8c32344209e9
ca-ca-https-locations-tacobell-ca-en-ab-edmonton-9626,ca-https-locations-tacobell-ca-en-ab-edmonton-9626-,Taco Bell,9626 160th Avenue East NW,Edmonton,AB,T5P 3C6,CA,53.6218096,-113.4909851,+1 780-423-2714,https://locations.tacobell.ca/en/ab/edmonton/9626/
ca-ca-https-locations-tacobell-ca-en-ab-edmonton-8036,ca-https-locations-tacobell-ca-en-ab-edmonton-8036-,Taco Bell,8036 118th Avenue,Edmonton,AB,T5B 0R8,CA,53.5706940,-113.4651560,+1 780-944-1301,https://locations.tacobell.ca/en/ab/edmonton/8036/
ca-ca-https-locations-tacobell-ca-en-ab-edmonton-4950,ca-https-locations-tacobell-ca-en-ab-edmonton-4950-,Taco Bell,4950 101st Avenue,Edmonton,AB,T6A 3Y1,CA,53.5416192,-113.4174982,+1 780-448-3866,https://locations.tacobell.ca/en/ab/edmonton/4950/
ca-ca-https-locations-tacobell-ca-en-ab-edmonton-8730,ca-https-locations-tacobell-ca-en-ab-edmonton-8730-,Taco Bell,8730 156 Street,Edmonton,AB,T5R 1Y5,CA,53.5210338,-113.5909380,+1 780-448-3850,https://locations.tacobell.ca/en/ab/edmonton/8730/
ca-ca-https-locations-tacobell-ca-en-ab-edmonton-3349,ca-https-locations-tacobell-ca-en-ab-edmonton-3349-,Taco Bell,3349 118th Avenue NW,Edmonton,AB,T5W 4X1,CA,53.5698649,-113.3933210,+1 780-448-2621,https://locations.tacobell.ca/en/ab/edmonton/3349/
ca-ca-https-locations-tacobell-ca-en-ab-edmonton-3431,ca-https-locations-tacobell-ca-en-ab-edmonton-3431-,Taco Bell,"3431 Gateway Blvd, Building 6",Edmonton,AB,T6J 5V5,CA,53.4711370,-113.4921172,+1 587-490-4892,https://locations.tacobell.ca/en/ab/edmonton/3431/
ca-ca-https-locations-tacobell-ca-en-ab-fort-mcmurray,ca-https-locations-tacobell-ca-en-ab-fort-mcmurray-,Taco Bell,347 Powder Drive,Fort McMurray,AB,T9K 0M3,CA,56.7573319,-111.4561008,+1 780-792-0013,https://locations.tacobell.ca/en/ab/fort/mcmurray/
ca-ca-https-locations-tacobell-ca-en-ab-fort-saskatche,ca-https-locations-tacobell-ca-en-ab-fort-saskatche,Taco Bell,10090 88th Avenue,Fort Saskatchewan,AB,T8L 2T2,CA,53.7006133,-113.2049512,+1 780-998-4411,https://locations.tacobell.ca/en/ab/fort/saskatche
ca-ca-https-locations-tacobell-ca-en-ab-grand-prairie,ca-https-locations-tacobell-ca-en-ab-grand-prairie-,Taco Bell,11509 Westgate Dr.,Grand Prairie,AB,T8V 3B1,CA,55.1712691,-118.8419842,+1 780-402-3381,https://locations.tacobell.ca/en/ab/grand/prairie/
ca-ca-https-locations-tacobell-ca-en-ab-lac-la-biche-1,ca-https-locations-tacobell-ca-en-ab-lac-la-biche-1,Taco Bell,10003 101 Avenue,Lac La Biche,AB,T0A 2C0,CA,54.7714439,-111.9725610,+1 780-623-7177,https://locations.tacobell.ca/en/ab/lac/la/biche/1
ca-ca-https-locations-tacobell-ca-en-ab-leduc-5706-50t,ca-https-locations-tacobell-ca-en-ab-leduc-5706-50t,Taco Bell,5706 50th Street,Leduc,AB,T9E 6J4,CA,53.2721638,-113.5518248,+1 780-986-2502,https://locations.tacobell.ca/en/ab/leduc/5706/50t
ca-a6e54331-183e-29fb-a711-65a83fc23794,a6e54331-183e-29fb-a711-65a83fc23794,Taco Bell West Lethbridge,188 Columbia Blvd. West Lethbridge AB T1K 4J4,"Santa Monica, CA, USA",,,CA,49.6754270,-112.8755550,403-381-0244,https://www.tacobell.ca/en/store-locator#a6e54331-183e-29fb-a711-65a83fc23794
ca-ca-https-locations-tacobell-ca-en-ab-medicine-hat-1,ca-https-locations-tacobell-ca-en-ab-medicine-hat-1,Taco Bell,1071 Ross Glen Drive Southeast,Medicine Hat,AB,T1B 3T8,CA,50.0025662,-110.6428384,+1 403-529-6703,https://locations.tacobell.ca/en/ab/medicine/hat/1
ca-ca-https-locations-tacobell-ca-en-ab-okotoks-200-so,ca-https-locations-tacobell-ca-en-ab-okotoks-200-so,Taco Bell,200 Southridge Drive,Okotoks,AB,T1S 0B2,CA,50.7075288,-113.9756795,+1 403-938-1498,https://locations.tacobell.ca/en/ab/okotoks/200/so
ca-ca-https-locations-tacobell-ca-en-ab-red-deer-6889,ca-https-locations-tacobell-ca-en-ab-red-deer-6889-,Taco Bell,6889 50th Avenue,Red Deer,AB,T4N 4E2,CA,52.2954975,-113.8129950,+1 403-340-2700,https://locations.tacobell.ca/en/ab/red/deer/6889/
ca-ca-https-locations-tacobell-ca-en-ab-rocky-view-261,ca-https-locations-tacobell-ca-en-ab-rocky-view-261,Taco Bell,261055 Crossiron Blvd,Rocky View,AB,T4A 0G3,CA,51.2028342,-113.9905198,+1 403-274-5137,https://locations.tacobell.ca/en/ab/rocky/view/261
ca-ca-https-locations-tacobell-ca-en-ab-sherwood-park,ca-https-locations-tacobell-ca-en-ab-sherwood-park-,Taco Bell,550 Baseline Road,Sherwood Park,AB,T8H 2G8,CA,53.5416383,-113.2687293,+1 780-416-8145,https://locations.tacobell.ca/en/ab/sherwood/park/
ca-630de310-5cd7-08d9-0265-bb2e171dabe2,630de310-5cd7-08d9-0265-bb2e171dabe2,TACO BELL 170 HWY. 16A,170 Hwy. 16A Spruce Grove AB T7X 3X3,"Santa Monica, CA, USA",,,CA,53.5418710,-113.9273230,780-962-4822,https://www.tacobell.ca/en/store-locator#630de310-5cd7-08d9-0265-bb2e171dabe2
ca-ca-https-locations-tacobell-ca-en-ab-st-albert-371,ca-https-locations-tacobell-ca-en-ab-st-albert-371-,Taco Bell,371 St. Albert Trail,St. Albert,AB,T8N 0R1,CA,53.6394051,-113.6241848,+1 780-458-7713,https://locations.tacobell.ca/en/ab/st/albert/371/
ca-a4f298ff-15da-c803-7c84-b1c68ab9b901,a4f298ff-15da-c803-7c84-b1c68ab9b901,TACO BELL 300-2991 LOUGHEED HIGHWAY,#300-2991 Lougheed Highway Coquitlam BC V3B 6J6,"Santa Monica, CA, USA",,,CA,49.2779240,-122.7952030,604-464-2025,https://www.tacobell.ca/en/store-locator#a4f298ff-15da-c803-7c84-b1c68ab9b901
ca-ca-https-locations-tacobell-ca-en-bc-delta-8737-120,ca-https-locations-tacobell-ca-en-bc-delta-8737-120,Taco Bell,8737 120 Street,Delta,BC,V4C 6R4,CA,49.1614862,-122.8910006,+1 778-578-5062,https://locations.tacobell.ca/en/bc/delta/8737/120
ca-f09cde08-ca18-fdeb-1bed-deedb9c8434d,f09cde08-ca18-fdeb-1bed-deedb9c8434d,TACO BELL 555 NOTRE DAME DRIVE,555 Notre Dame Drive Kamloops BC V2C 1E6,"Santa Monica, CA, USA",,,CA,50.6631710,-120.3519550,250-374-6534,https://www.tacobell.ca/en/store-locator#f09cde08-ca18-fdeb-1bed-deedb9c8434d
ca-ca-https-locations-tacobell-ca-en-bc-kelowna-2271-h,ca-https-locations-tacobell-ca-en-bc-kelowna-2271-h,Taco Bell,2271 Harvey Avenue,Kelowna,BC,V1Y 6H2,CA,49.8781287,-119.4402145,+1 250-860-3338,https://locations.tacobell.ca/en/bc/kelowna/2271/h
ca-7b3b69f0-b277-1fc2-eb6b-7748f3cc96eb,7b3b69f0-b277-1fc2-eb6b-7748f3cc96eb,TACO BELL 19971 64TH AVENUE,19971 64th Avenue Langley BC V2Y1G9,"Santa Monica, CA, USA",,,CA,49.1194810,-122.6690050,604-530-2032,https://www.tacobell.ca/en/store-locator#7b3b69f0-b277-1fc2-eb6b-7748f3cc96eb
ca-c6a08eda-f8e3-684b-45e8-fc72b72f8f88,c6a08eda-f8e3-684b-45e8-fc72b72f8f88,TACO BELL 6896 ISLAND HIGHWAY NORTH,6896 Island Highway North Nanaimo BC V9V 1P6,"Santa Monica, CA, USA",,,CA,49.2395890,-124.0510630,250-390-1565,https://www.tacobell.ca/en/store-locator#c6a08eda-f8e3-684b-45e8-fc72b72f8f88
ca-ca-https-locations-tacobell-ca-en-bc-prince-george,ca-https-locations-tacobell-ca-en-bc-prince-george-,Taco Bell,3055 Massey Drive,Prince George,BC,V2N 2S9,CA,53.8973891,-122.7772529,+1 250-564-8226,https://locations.tacobell.ca/en/bc/prince/george/
ca-0e5f0da3-c548-ebb9-0999-819c95e63bcc,0e5f0da3-c548-ebb9-0999-819c95e63bcc,TACO BELL 45367 LUCKAKUCK WAY,45367 Luckakuck Way Sardis BC V2R 3C7,"Santa Monica, CA, USA",,,CA,49.1429230,-121.9693220,604-858-3799,https://www.tacobell.ca/en/store-locator#0e5f0da3-c548-ebb9-0999-819c95e63bcc
ca-bd08d55d-31a4-8453-aae3-1ee11366e192,bd08d55d-31a4-8453-aae3-1ee11366e192,TACO BELL 13577 73RD AVENUE,13577 73rd Avenue Surrey BC V3W 2R5,"Santa Monica, CA, USA",,,CA,49.1352810,-122.8459670,604-596-7999,https://www.tacobell.ca/en/store-locator#bd08d55d-31a4-8453-aae3-1ee11366e192
ca-ecac952b-e09d-548d-fa73-564b24dab41e,ecac952b-e09d-548d-fa73-564b24dab41e,TACO BELL 9056 152ND STREET,9056 152nd Street Surrey BC V3R 4E7,"Santa Monica, CA, USA",,,CA,49.1674110,-122.8007780,604-583-7775,https://www.tacobell.ca/en/store-locator#ecac952b-e09d-548d-fa73-564b24dab41e
ca-6743dded-a747-444a-a4b8-1084e8e05719,6743dded-a747-444a-a4b8-1084e8e05719,Taco Bell Cloverdale,17740 56 Avenue Surrey BC V3S 1C7,"Santa Monica, CA, USA",,,CA,49.1038830,-122.7305780,604-576-7450,https://www.tacobell.ca/en/store-locator#6743dded-a747-444a-a4b8-1084e8e05719
ca-ca-https-locations-tacobell-ca-en-bc-vancouver-964,ca-https-locations-tacobell-ca-en-bc-vancouver-964-,Taco Bell,964 Granville St.,Vancouver,BC,V6X 1L2,CA,49.2794212,-123.1222497,+1 778-357-3408,https://locations.tacobell.ca/en/bc/vancouver/964/
ca-ca-https-locations-tacobell-ca-en-bc-vernon-4510-27,ca-https-locations-tacobell-ca-en-bc-vernon-4510-27,Taco Bell,4510 – 27th Street,Vernon,BC,V1T 4Y6,CA,50.2787075,-119.2688495,+1 778-506-2767,https://locations.tacobell.ca/en/bc/vernon/4510/27
ca-ca-https-locations-tacobell-ca-en-mb-winnipeg-2079,ca-https-locations-tacobell-ca-en-mb-winnipeg-2079-,Taco Bell,2079 Pembi Highway,Winnipeg,MB,R3C 3V6,CA,49.8146154,-97.1524609,+1 204-987-8312,https://locations.tacobell.ca/en/mb/winnipeg/2079/
ca-ca-https-locations-tacobell-ca-en-mb-winnipeg-679-h,ca-https-locations-tacobell-ca-en-mb-winnipeg-679-h,Taco Bell,679 Henderson Highway,Winnipeg,MB,R2K 2J7,CA,49.9249804,-97.1060659,+1 204-987-8206,https://locations.tacobell.ca/en/mb/winnipeg/679/h
ca-ca-https-locations-tacobell-ca-en-mb-winnipeg-3651,ca-https-locations-tacobell-ca-en-mb-winnipeg-3651-,Taco Bell,3651 Portage Avenue,Winnipeg,MB,R3K 2G6,CA,49.8824532,-97.3129742,+1 204-987-8229,https://locations.tacobell.ca/en/mb/winnipeg/3651/
ca-ca-https-locations-tacobell-ca-en-mb-winnipeg-750-s,ca-https-locations-tacobell-ca-en-mb-winnipeg-750-s,Taco Bell,750 Sherbrook Street,Winnipeg,MB,R3B 2X4,CA,49.9009183,-97.1585762,+1 204-987-8201,https://locations.tacobell.ca/en/mb/winnipeg/750/s
ca-ca-https-locations-tacobell-ca-en-mb-winnipeg-1651,ca-https-locations-tacobell-ca-en-mb-winnipeg-1651-,Taco Bell,1651 Regent Avenue,Winnipeg,MB,R2C 4H9,CA,49.8991706,-97.0715048,+1 204-987-8207,https://locations.tacobell.ca/en/mb/winnipeg/1651/
ca-ca-https-locations-tacobell-ca-en-mb-winnipeg-1275,ca-https-locations-tacobell-ca-en-mb-winnipeg-1275-,Taco Bell,1275 Portage Avenue,Winnipeg,MB,R3G 0T8,CA,49.8833434,-97.1865981,+1 204-987-8004,https://locations.tacobell.ca/en/mb/winnipeg/1275/
ca-ca-https-locations-tacobell-ca-en-mb-winnipeg-1125,ca-https-locations-tacobell-ca-en-mb-winnipeg-1125-,Taco Bell,1125 Main Street,Winnipeg,MB,R2W 3S4,CA,49.9173267,-97.1299635,+1 204-987-8204,https://locations.tacobell.ca/en/mb/winnipeg/1125/
ca-ca-https-locations-tacobell-ca-en-mb-winnipeg-1030,ca-https-locations-tacobell-ca-en-mb-winnipeg-1030-,Taco Bell,1030 Keewatin Street,Winnipeg,MB,R2R 2E2,CA,49.9443803,-97.1959962,+1 204-987-8314,https://locations.tacobell.ca/en/mb/winnipeg/1030/
ca-ca-https-locations-tacobell-ca-en-mb-winnipeg-1100,ca-https-locations-tacobell-ca-en-mb-winnipeg-1100-,Taco Bell,1100 St. Mary's Road,Winnipeg,MB,R2M 3T4,CA,49.8349045,-97.1140098,+1 204-987-8209,https://locations.tacobell.ca/en/mb/winnipeg/1100/
ca-ca-https-locations-tacobell-ca-en-mb-winnipeg-16-la,ca-https-locations-tacobell-ca-en-mb-winnipeg-16-la,Taco Bell,16 Lakewood Blvd.,Winnipeg,MB,R2J 2M6,CA,49.8554667,-97.0791334,+1 204-987-8309,https://locations.tacobell.ca/en/mb/winnipeg/16/la
ca-ca-https-locations-tacobell-ca-en-nb-dieppe-451-pau,ca-https-locations-tacobell-ca-en-nb-dieppe-451-pau,Taco Bell,451 Paul Street,Dieppe,NB,E1A 6W8,CA,46.0946235,-64.7565727,+1 506-858-8877,https://locations.tacobell.ca/en/nb/dieppe/451/pau
ca-ca-https-locations-tacobell-ca-en-nb-fredericton-13,ca-https-locations-tacobell-ca-en-nb-fredericton-13,Taco Bell,1381 Regent St,Fredericton,NB,E3C 1A2,CA,45.9356657,-66.6654214,+1 506-458-8226,https://locations.tacobell.ca/en/nb/fredericton/13
ca-ca-https-locations-tacobell-ca-en-nb-saint-john-545,ca-https-locations-tacobell-ca-en-nb-saint-john-545,Taco Bell,545 Westmorland Place,Saint John,NB,E2J 3T3,CA,45.3114070,-66.0142288,+1 506-633-4811,https://locations.tacobell.ca/en/nb/saint/john/545
ca-ca-https-locations-tacobell-ca-en-nb-saint-john-944,ca-https-locations-tacobell-ca-en-nb-saint-john-944,Taco Bell,"944 Fairville Blvd, Unit 2",Saint John,NB,E2B5T5,CA,45.2490333,-66.1039176,+1 506-657-7788,https://locations.tacobell.ca/en/nb/saint/john/944
ca-ca-https-locations-tacobell-ca-en-nl-mount-pearl-47,ca-https-locations-tacobell-ca-en-nl-mount-pearl-47,Taco Bell,47 Commonwealth Avenue,Mount Pearl,NL,A1N 1W7,CA,47.5169427,-52.8060941,+1 709-984-0147,https://locations.tacobell.ca/en/nl/mount/pearl/47
ca-ca-https-locations-tacobell-ca-en-nl-st-johns-34-ro,ca-https-locations-tacobell-ca-en-nl-st-johns-34-ro,Taco Bell,34 Ropewalk Lane,St. John's,NL,A1E 1V1,CA,47.5559390,-52.7358537,+1 709-207-2400,https://locations.tacobell.ca/en/nl/st/johns/34/ro
ca-ca-https-locations-tacobell-ca-en-ns-dartmouth-21-m,ca-https-locations-tacobell-ca-en-ns-dartmouth-21-m,Taco Bell,21 Mic Mac Blvd.,Dartmouth,NS,B3A 4N3,CA,44.6860981,-63.5597947,+1 902-463-1300,https://locations.tacobell.ca/en/ns/dartmouth/21/m
ca-ca-https-locations-tacobell-ca-en-ns-halifax-7001-m,ca-https-locations-tacobell-ca-en-ns-halifax-7001-m,Taco Bell,7001 Mumford Road,Halifax,NS,B3L 4N9,CA,44.6493237,-63.6181560,+1 902-455-1824,https://locations.tacobell.ca/en/ns/halifax/7001/m
ca-ca-https-locations-tacobell-ca-en-ns-stewiacke-87-w,ca-https-locations-tacobell-ca-en-ns-stewiacke-87-w,Taco Bell,87 West Main Street,Stewiacke,NS,B0N 2J0,CA,45.1400078,-63.3619679,+1 902-639-2244,https://locations.tacobell.ca/en/ns/stewiacke/87/w
ca-ca-https-locations-tacobell-ca-en-ns-sydney-river-2,ca-https-locations-tacobell-ca-en-ns-sydney-river-2,Taco Bell,29 Keltic Drive,Sydney River,NS,B1S 1P4,CA,46.1085757,-60.2242266,+1 902-564-6646,https://locations.tacobell.ca/en/ns/sydney/river/2
ca-ca-https-locations-tacobell-ca-en-ns-truro-242-robi,ca-https-locations-tacobell-ca-en-ns-truro-242-robi,Taco Bell,242 Robie Street,Truro,NS,B2N 1L1,CA,45.3690487,-63.3015445,+1 902-895-2101,https://locations.tacobell.ca/en/ns/truro/242/robi
ca-ca-https-locations-tacobell-ca-en-ns-yarmouth-536-m,ca-https-locations-tacobell-ca-en-ns-yarmouth-536-m,Taco Bell,536 Main Street,Yarmouth,NS,B5A 4B6,CA,43.8459572,-66.1167537,+1 902-742-4581,https://locations.tacobell.ca/en/ns/yarmouth/536/m
ca-ca-https-locations-tacobell-ca-en-on-ajax-422-bayly,ca-https-locations-tacobell-ca-en-on-ajax-422-bayly,Taco Bell,422 Bayly Street West,Ajax,ON,L1S 1P1,CA,43.8408667,-79.0342679,+1 905-686-3125,https://locations.tacobell.ca/en/on/ajax/422/bayly
ca-ca-https-locations-tacobell-ca-en-on-amherstburg-52,ca-https-locations-tacobell-ca-en-on-amherstburg-52,Taco Bell,527 Sandwich Street South,Amherstburg,ON,N9V 3G5,CA,42.0925884,-83.1064590,+1 519-713-9449,https://locations.tacobell.ca/en/on/amherstburg/52
ca-d9bd72eb-7f09-8c6d-33a9-b0ace583ab7d,d9bd72eb-7f09-8c6d-33a9-b0ace583ab7d,TACO BELL 644 YONGE STREET,644 Yonge Street Barrie ON L4N 4E6,"Santa Monica, CA, USA",,,CA,44.3554330,-79.6447040,705-719-7467,https://www.tacobell.ca/en/store-locator#d9bd72eb-7f09-8c6d-33a9-b0ace583ab7d
ca-a7f77532-20d2-ee0c-41e0-ee813e35323e,a7f77532-20d2-ee0c-41e0-ee813e35323e,TACO BELL 315 BAYFIELD STREET NORTH,315 Bayfield Street North Barrie ON L4M 3C2,"Santa Monica, CA, USA",,,CA,44.4014620,-79.6998260,705-726-7220,https://www.tacobell.ca/en/store-locator#a7f77532-20d2-ee0c-41e0-ee813e35323e
ca-ca-https-locations-tacobell-ca-en-on-belleville-336,ca-https-locations-tacobell-ca-en-on-belleville-336,Taco Bell,336 Front Street North,Belleville,ON,K8N 5J4,CA,44.1861093,-77.3957981,+1 343-710-0049,https://locations.tacobell.ca/en/on/belleville/336
ca-90529fbe-e501-1f22-8ace-aac84eedb121,90529fbe-e501-1f22-8ace-aac84eedb121,TACO BELL QUINTE MALL BELLEVILLE,390 North Front Street (Quinte Mall) Belleville ON K8P 3C9,"Santa Monica, CA, USA",,,CA,44.1892570,-77.4019540,613-966-1642,https://www.tacobell.ca/en/store-locator#90529fbe-e501-1f22-8ace-aac84eedb121
ca-ca-https-locations-tacobell-ca-en-on-brampton-3058,ca-https-locations-tacobell-ca-en-on-brampton-3058-,Taco Bell,3058 Mayfield Road,Brampton,ON,L6Z 0E3,CA,43.7348070,-79.8243533,+1 905-846-3935,https://locations.tacobell.ca/en/on/brampton/3058/
ca-07c19d2b-11ea-8d31-3444-da6a391687f7,07c19d2b-11ea-8d31-3444-da6a391687f7,Taco Bell 45 Cherrycrest,45 Cherrycrest Drive Brampton ON L6P 0S2,"Santa Monica, CA, USA",,,CA,43.7639450,-79.6687820,905-794-8105,https://www.tacobell.ca/en/store-locator#07c19d2b-11ea-8d31-3444-da6a391687f7
ca-ca-https-locations-tacobell-ca-en-on-brampton-9465,ca-https-locations-tacobell-ca-en-on-brampton-9465-,Taco Bell,9465 Mississauga Road,Brampton,ON,L6X 0Z8,CA,43.6562918,-79.8146688,+1 905-453-8118,https://locations.tacobell.ca/en/on/brampton/9465/
ca-ca-https-locations-tacobell-ca-en-on-brampton-499-m,ca-https-locations-tacobell-ca-en-on-brampton-499-m,Taco Bell,499 Main Street South,Brampton,ON,L6Y 1N7,CA,43.6661394,-79.7378756,+1 905-796-6790,https://locations.tacobell.ca/en/on/brampton/499/m
ca-ca-https-locations-tacobell-ca-en-on-brampton-10068,ca-https-locations-tacobell-ca-en-on-brampton-10068,Taco Bell,10068 McLaughlin Road,Brampton,ON,L7A 2X6,CA,43.6967247,-79.7994546,+1 905-495-2367,https://locations.tacobell.ca/en/on/brampton/10068
ca-c061ec6f-5bd3-bf5f-ee5c-59084b96e10a,c061ec6f-5bd3-bf5f-ee5c-59084b96e10a,TACO BELL 9940 AIRPORT ROAD BRAMPTON,9940 Airport Road (at Bovaird Drive) Brampton ON L6S 0C5,"Santa Monica, CA, USA",,,CA,43.7610320,-79.7200060,905-799-2736,https://www.tacobell.ca/en/store-locator#c061ec6f-5bd3-bf5f-ee5c-59084b96e10a
ca-ca-https-locations-tacobell-ca-en-on-brampton-25-pe,ca-https-locations-tacobell-ca-en-on-brampton-25-pe,Taco Bell,25 Peel Centre Dr,Brampton,ON,L6T3R5,CA,43.7153586,-79.7222728,+1 905-458-5900,https://locations.tacobell.ca/en/on/brampton/25/pe
ca-ca-https-locations-tacobell-ca-en-on-brant-1-hartle,ca-https-locations-tacobell-ca-en-on-brant-1-hartle,Taco Bell,1 Hartley Ave,Brant,ON,N3L 3E2,CA,43.2170000,-80.3920000,+1 519-442-2968,https://locations.tacobell.ca/en/on/brant/1/hartle
ca-ca-https-locations-tacobell-ca-en-on-brantford-11-s,ca-https-locations-tacobell-ca-en-on-brantford-11-s,Taco Bell,11 Sinclair Boulevard,Brantford,ON,N3S 7X6,CA,43.1693721,-80.2152786,+1 519-770-1436,https://locations.tacobell.ca/en/on/brantford/11/s
ca-ca-https-locations-tacobell-ca-en-on-brantford-656,ca-https-locations-tacobell-ca-en-on-brantford-656-,Taco Bell,656 Colborne Street,Brantford,ON,N3S 3P8,CA,43.1414207,-80.2384998,+1 519-750-1852,https://locations.tacobell.ca/en/on/brantford/656/
ca-3283de0a-4421-9e53-0599-94278607ebfb,3283de0a-4421-9e53-0599-94278607ebfb,Taco Bell 68 King George Road,68 King George Brantford,Brantford,,,CA,43.1645563,-80.2740754,+15197522686,https://www.tacobell.ca/en/store-locator#3283de0a-4421-9e53-0599-94278607ebfb
ca-0d5a6620-9fb2-3d9b-fcbb-ba1cbc35d3b5,0d5a6620-9fb2-3d9b-fcbb-ba1cbc35d3b5,Taco Bell Lynden Park (Food Court),84 Lynden Road Brantford ON N3R 6B8,"Santa Monica, CA, USA",,,CA,43.1714960,-80.2396910,519-752-4777,https://www.tacobell.ca/en/store-locator#0d5a6620-9fb2-3d9b-fcbb-ba1cbc35d3b5
ca-ca-https-locations-tacobell-ca-en-on-burlington-900,ca-https-locations-tacobell-ca-en-on-burlington-900,Taco Bell,900 Maple Avenue,Burlington,ON,L7S 2J8,CA,43.3258269,-79.8208432,+1 905-634-1441,https://locations.tacobell.ca/en/on/burlington/900
ca-ca-https-locations-tacobell-ca-en-on-burlington-777,ca-https-locations-tacobell-ca-en-on-burlington-777,Taco Bell,777 Guelph Line,Burlington,ON,L7R 3N2,CA,43.3489223,-79.7951251,+1 905-631-0437,https://locations.tacobell.ca/en/on/burlington/777
ca-549ae9e1-e324-eed5-4d5b-90b1246b84a0,549ae9e1-e324-eed5-4d5b-90b1246b84a0,Taco Bell 355 Hespeler Road - Cambridge,355 Hespeler Road Cambridge ON N1R 6B3,"Santa Monica, CA, USA",,,CA,43.3939040,-80.3200200,250-627-4992,https://www.tacobell.ca/en/store-locator#549ae9e1-e324-eed5-4d5b-90b1246b84a0
ca-ca-https-locations-tacobell-ca-en-on-chatham-328-st,ca-https-locations-tacobell-ca-en-on-chatham-328-st,Taco Bell,328 St Clair Street,Chatham,ON,N7L3K1,CA,42.4130780,-82.1980391,+1 519-351-7485,https://locations.tacobell.ca/en/on/chatham/328/st
ca-ca-https-locations-tacobell-ca-en-on-cornwall-418-n,ca-https-locations-tacobell-ca-en-on-cornwall-418-n,Taco Bell,418 Ninth St W,Cornwall,ON,K6J 4J7,CA,45.0252964,-74.7449947,+1 613-361-3267,https://locations.tacobell.ca/en/on/cornwall/418/n
ca-bb76947f-a54c-8a9c-2d89-5b11ac6a0a46,bb76947f-a54c-8a9c-2d89-5b11ac6a0a46,TACO BELL 1610 THE QUEENSWAY,1610 The Queensway Etobicoke ON M8Z 1V1,"Santa Monica, CA, USA",,,CA,43.6173620,-79.5441800,416-255-1917,https://www.tacobell.ca/en/store-locator#bb76947f-a54c-8a9c-2d89-5b11ac6a0a46
ca-ca-https-locations-tacobell-ca-en-on-etobicoke-1727,ca-https-locations-tacobell-ca-en-on-etobicoke-1727,Taco Bell,1727 Albion Road,Etobicoke,ON,M9V 1C1,CA,43.7430776,-79.6029279,+1 416-743-7486,https://locations.tacobell.ca/en/on/etobicoke/1727
ca-ca-https-locations-tacobell-ca-en-on-fort-erie-644,ca-https-locations-tacobell-ca-en-on-fort-erie-644-,Taco Bell,644 Garrison Road,Fort Erie,ON,L2A 1N4,CA,42.9057460,-78.9382850,+1 365-607-5945,https://locations.tacobell.ca/en/on/fort/erie/644/
ca-aab25bf3-a198-8fc8-ed04-c12618f2e429,aab25bf3-a198-8fc8-ed04-c12618f2e429,TACO BELL 4027 INNES ROAD,4027 Innes Road Gloucester ON K1C 1T1,"Santa Monica, CA, USA",,,CA,45.4558480,-75.5054190,613-830-9586,https://www.tacobell.ca/en/store-locator#aab25bf3-a198-8fc8-ed04-c12618f2e429
ca-bcaf256a-c671-f3f2-0370-0647c330193d,bcaf256a-c671-f3f2-0370-0647c330193d,TACO BELL 424 SOUTH SERVICE ROAD,424 South Service Road Grimsby ON L3M 4G3,"Santa Monica, CA, USA",,,CA,43.2063850,-79.5982270,905-309-3963,https://www.tacobell.ca/en/store-locator#bcaf256a-c671-f3f2-0370-0647c330193d
ca-ba7ba1c0-d321-8cac-5eb6-2a3c603a6d9d,ba7ba1c0-d321-8cac-5eb6-2a3c603a6d9d,Taco Bell 20 Woodlawn,20 WOODLAWN ROAD EAST,Guelph,,,CA,43.5668870,-80.2756710,+15197802999,https://www.tacobell.ca/en/store-locator#ba7ba1c0-d321-8cac-5eb6-2a3c603a6d9d
ca-ca-https-locations-tacobell-ca-en-on-guelph-455-woo,ca-https-locations-tacobell-ca-en-on-guelph-455-woo,Taco Bell,455 Woodlawn Rd W,Guelph,ON,N1K 1A6,CA,43.5446839,-80.3081339,+1 519-780-2499,https://locations.tacobell.ca/en/on/guelph/455/woo
ca-ca-https-locations-tacobell-ca-en-on-guelph-435-sto,ca-https-locations-tacobell-ca-en-on-guelph-435-sto,Taco Bell,435 Stone Road West,Guelph,ON,N1G 2X6,CA,43.5184229,-80.2382431,+1 519-780-4262,https://locations.tacobell.ca/en/on/guelph/435/sto
ca-ca-https-locations-tacobell-ca-en-on-hamilton-677-u,ca-https-locations-tacobell-ca-en-on-hamilton-677-u,Taco Bell,677 Upper James St,Hamilton,ON,L9C 5R9,CA,43.2344462,-79.8789018,+1 905-383-8877,https://locations.tacobell.ca/en/on/hamilton/677/u
ca-d93cfb86-6b6d-a22c-b439-fd0bf1b13b02,d93cfb86-6b6d-a22c-b439-fd0bf1b13b02,Taco Bell 744 QUEENSTON RD N,744 Queenston Rd Hamilton,Hamilton,,,CA,43.2287612,-79.7693900,+19055730733,https://www.tacobell.ca/en/store-locator#d93cfb86-6b6d-a22c-b439-fd0bf1b13b02
ca-a05553f8-7266-5bee-d99e-9c9b04be68f4,a05553f8-7266-5bee-d99e-9c9b04be68f4,Taco Bell 1550 UPPER JAMES ST N,1550 Upper James Hamilton,Hamilton,,,CA,43.2033050,-79.8945020,+19053876006,https://www.tacobell.ca/en/store-locator#a05553f8-7266-5bee-d99e-9c9b04be68f4
ca-ca-https-locations-tacobell-ca-en-on-hamilton-2-kin,ca-https-locations-tacobell-ca-en-on-hamilton-2-kin,Taco Bell,2 King Street West,Hamilton,ON,L9H 6Z1,CA,43.2658396,-79.9542120,+1 905-308-7542,https://locations.tacobell.ca/en/on/hamilton/2/kin
ca-ca-https-locations-tacobell-ca-en-on-hamilton-999-u,ca-https-locations-tacobell-ca-en-on-hamilton-999-u,Taco Bell,999 Upper Wentworth,Hamilton,ON,L9A 4X5,CA,43.2173120,-79.8602836,+1 905-318-6565,https://locations.tacobell.ca/en/on/hamilton/999/u
ca-ca-https-locations-tacobell-ca-en-on-hamilton-1195,ca-https-locations-tacobell-ca-en-on-hamilton-1195-,Taco Bell,1195 Barton Street East,Hamilton,ON,L8H 2V7,CA,43.2508255,-79.8108449,+1 289-674-8414,https://locations.tacobell.ca/en/on/hamilton/1195/
ca-ca-https-locations-tacobell-ca-en-on-hannon-2154-ry,ca-https-locations-tacobell-ca-en-on-hannon-2154-ry,Taco Bell,2154 Rymal Road East,Hannon,ON,L0R 1P0,CA,43.1745953,-79.7885456,+1 905-692-2224,https://locations.tacobell.ca/en/on/hannon/2154/ry
ca-9f57a286-ce7d-7e65-a3c1-c9c4926a6489,9f57a286-ce7d-7e65-a3c1-c9c4926a6489,TB 906322 - Hawkesbury,500 Spence Ave. Bldg 350,Hawkesbury,,,CA,45.5977100,-74.6096000,+1 (343) 500-0172,https://www.tacobell.ca/en/store-locator#9f57a286-ce7d-7e65-a3c1-c9c4926a6489
ca-ca-https-locations-tacobell-ca-en-on-huntsville-15,ca-https-locations-tacobell-ca-en-on-huntsville-15-,Taco Bell,15 Hanes Road,Huntsville,ON,P1H 1L8,CA,45.3389615,-79.2200809,+1 705-789-8718,https://locations.tacobell.ca/en/on/huntsville/15/
ca-ca-https-locations-tacobell-ca-en-on-kanata-461-haz,ca-https-locations-tacobell-ca-en-on-kanata-461-haz,Taco Bell,461 Hazeldean Road,Kanata,ON,K2L 1V1,CA,45.2995622,-75.8867792,+1 613-591-6732,https://locations.tacobell.ca/en/on/kanata/461/haz
ca-ca-https-locations-tacobell-ca-en-on-kingston-1668,ca-https-locations-tacobell-ca-en-on-kingston-1668-,Taco Bell,1668 Bath Road,Kingston,ON,K7M 4X9,CA,44.2377097,-76.5691010,+1 613-389-5393,https://locations.tacobell.ca/en/on/kingston/1668/
ca-3a836fe8-7b96-16f4-03a4-f9a4714688b6,3a836fe8-7b96-16f4-03a4-f9a4714688b6,TACO BELL 29 WARNE CRESCENT,29 Warne Crescent Kingston ON K7K 5A6,"Santa Monica, CA, USA",,,CA,44.2670000,-76.5000080,613-531-9693,https://www.tacobell.ca/en/store-locator#3a836fe8-7b96-16f4-03a4-f9a4714688b6
ca-ca-https-locations-tacobell-ca-en-on-kingston-945-g,ca-https-locations-tacobell-ca-en-on-kingston-945-g,Taco Bell,945 Gardiners Road,Kingston,ON,K7M 7H4,CA,44.2561911,-76.5718758,+1 613-384-1799,https://locations.tacobell.ca/en/on/kingston/945/g
ca-ca-https-locations-tacobell-ca-en-on-kingsville-329,ca-https-locations-tacobell-ca-en-on-kingsville-329,Taco Bell,329 Main Street East,Kingsville,ON,N9Y 1A7,CA,42.0379477,-82.7247374,+1 519-733-2733,https://locations.tacobell.ca/en/on/kingsville/329
ca-ca-https-locations-tacobell-ca-en-on-kitchener-1020,ca-https-locations-tacobell-ca-en-on-kitchener-1020,Taco Bell,1020 Ottawa Street North,Kitchener,ON,N2A 3Z3,CA,43.4522758,-80.4435184,+1 519-894-1615,https://locations.tacobell.ca/en/on/kitchener/1020
ca-97696cfb-c584-ca08-5467-1a20cadd1356,97696cfb-c584-ca08-5467-1a20cadd1356,TACO BELL 2960 KINGSWAY DRIVE,2960 Kingsway Drive Kitchener ON N2C 1X1,"Santa Monica, CA, USA",,,CA,43.4251910,-80.4385390,519-748-6464,https://www.tacobell.ca/en/store-locator#97696cfb-c584-ca08-5467-1a20cadd1356
ca-ca-https-locations-tacobell-ca-en-on-kitchener-2480,ca-https-locations-tacobell-ca-en-on-kitchener-2480,Taco Bell,2480 Homer Watson Boulevard,Kitchener,ON,N2P 2R5,CA,43.3858801,-80.4104473,+1 519-894-3434,https://locations.tacobell.ca/en/on/kitchener/2480
ca-72c8694b-84c1-158c-55d1-172e996348a8,72c8694b-84c1-158c-55d1-172e996348a8,Taco Bell 2301 Sandwich West Pkwy.,2301 Sandwich West Pkwy,LaSalle,,,CA,42.2368178,-83.0183520,N/A,https://www.tacobell.ca/en/store-locator#72c8694b-84c1-158c-55d1-172e996348a8
ca-ca-https-locations-tacobell-ca-en-on-lindsay-1-comm,ca-https-locations-tacobell-ca-en-on-lindsay-1-comm,Taco Bell,1 Commerce Road,Lindsay,ON,K9V5Y3,CA,44.3490020,-78.7625440,+1 705-324-6174,https://locations.tacobell.ca/en/on/lindsay/1/comm
ca-ca-https-locations-tacobell-ca-en-on-listowel-300-m,ca-https-locations-tacobell-ca-en-on-listowel-300-m,Taco Bell,300 Mitchell Rd South,Listowel,ON,N4W 0H4,CA,43.7342938,-80.9662359,+1 519-418-3040,https://locations.tacobell.ca/en/on/listowel/300/m
ca-ca-https-locations-tacobell-ca-en-on-london-1040-wo,ca-https-locations-tacobell-ca-en-on-london-1040-wo,Taco Bell,1040 Wonderland Road South,London,ON,N6K 3S4,CA,42.9403161,-81.2810156,+1 226-330-0770,https://locations.tacobell.ca/en/on/london/1040/wo
ca-7a9cf613-1d66-5183-64c2-74f68e60b460,7a9cf613-1d66-5183-64c2-74f68e60b460,London - Adelaide Street,1850 Adelaide St N.,London,,,CA,43.0475685,-81.2600181,(519) 672-4046,https://www.tacobell.ca/en/store-locator#7a9cf613-1d66-5183-64c2-74f68e60b460
ca-ca-https-locations-tacobell-ca-en-on-london-1105-we,ca-https-locations-tacobell-ca-en-on-london-1105-we,Taco Bell,1105 Wellington Road South,London,ON,N6E 1V4,CA,42.9314007,-81.2245415,+1 519-685-2555,https://locations.tacobell.ca/en/on/london/1105/we
ca-986e66dd-c0e9-0356-4a69-8ad58badfda0,986e66dd-c0e9-0356-4a69-8ad58badfda0,Taco Bell 1584 DUNDAS ST E,1584 Dundas St E.London,London,,,CA,43.0000693,-81.1930953,+15194554338,https://www.tacobell.ca/en/store-locator#986e66dd-c0e9-0356-4a69-8ad58badfda0
ca-e940e199-0ec2-07f5-f39c-0123fe7bbbbd,e940e199-0ec2-07f5-f39c-0123fe7bbbbd,Taco Bell 1145 HIGHBURY AVE N,1145 Highbury Ave London,London,,,CA,43.0135584,-81.2126526,+15194559737,https://www.tacobell.ca/en/store-locator#e940e199-0ec2-07f5-f39c-0123fe7bbbbd
ca-ca-https-locations-tacobell-ca-en-on-london-1680-ri,ca-https-locations-tacobell-ca-en-on-london-1680-ri,Taco Bell,1680 Richmond Street,London,ON,N6G 3Y9,CA,43.0256395,-81.2784780,+1 519-642-9502,https://locations.tacobell.ca/en/on/london/1680/ri
ca-f90e8ad7-fb56-65ad-80b5-6511376e283a,f90e8ad7-fb56-65ad-80b5-6511376e283a,TACO BELL 1915 HYDE PARK ROAD,1915 Hyde Park Road London ON N6H 0A3,"Santa Monica, CA, USA",,,CA,43.0085900,-81.3362420,519-471-2283,https://www.tacobell.ca/en/store-locator#f90e8ad7-fb56-65ad-80b5-6511376e283a
ca-ca-https-locations-tacobell-ca-en-on-markham-5000-h,ca-https-locations-tacobell-ca-en-on-markham-5000-h,Taco Bell,5000 Hwy 7 E,Markham,ON,L3R 4M9,CA,43.8704582,-79.2871110,+1 905-944-0258,https://locations.tacobell.ca/en/on/markham/5000/h
ca-ca-https-locations-tacobell-ca-en-on-milton-405-mar,ca-https-locations-tacobell-ca-en-on-milton-405-mar,Taco Bell,405 Martin Street,Milton,ON,L9T 2R8,CA,43.5217091,-79.8932444,+1 905-864-0551,https://locations.tacobell.ca/en/on/milton/405/mar
ca-ca-https-locations-tacobell-ca-en-on-mississauga-10,ca-https-locations-tacobell-ca-en-on-mississauga-10,Taco Bell,100 City Centre Dr,Mississauga,ON,L5B2C9,CA,43.5927495,-79.6425830,+1 416-207-8916,https://locations.tacobell.ca/en/on/mississauga/10
ca-ca-https-locations-tacobell-ca-en-on-mississauga-98,ca-https-locations-tacobell-ca-en-on-mississauga-98,Taco Bell,985 Eglinton Avenue East,Mississauga,ON,L4W 4H3,CA,43.6265977,-79.6315317,+1 905-238-9514,https://locations.tacobell.ca/en/on/mississauga/98
ca-ca-https-locations-tacobell-ca-en-on-mississauga-22,ca-https-locations-tacobell-ca-en-on-mississauga-22,Taco Bell,2225 Erin Mills Parkway,Mississauga,ON,L5K 1T8,CA,43.5304827,-79.6534262,+1 905-822-5454,https://locations.tacobell.ca/en/on/mississauga/22
ca-19cf9f00-58bf-da5c-252b-57353a518691,19cf9f00-58bf-da5c-252b-57353a518691,TACO BELL 7161 GOREWAY DRIVE,7161 Goreway Drive Mississauga ON L4T 2T5,"Santa Monica, CA, USA",,,CA,43.7169210,-79.6354290,905-677-3813,https://www.tacobell.ca/en/store-locator#19cf9f00-58bf-da5c-252b-57353a518691
ca-ca-https-locations-tacobell-ca-en-on-mississauga-51,ca-https-locations-tacobell-ca-en-on-mississauga-51,Taco Bell,5100 Erin Mills Parkway,Mississauga,ON,L5M 4Z5,CA,43.5589289,-79.7112001,+1 905-828-6996,https://locations.tacobell.ca/en/on/mississauga/51
ca-ca-https-locations-tacobell-ca-en-on-nepean-100-bay,ca-https-locations-tacobell-ca-en-on-nepean-100-bay,Taco Bell,100 Bayshore Drive,Nepean,ON,K2B 8C1,CA,45.3480949,-75.8047365,+1 613-721-7664,https://locations.tacobell.ca/en/on/nepean/100/bay
ca-ca-https-locations-tacobell-ca-en-on-newmarket-1659,ca-https-locations-tacobell-ca-en-on-newmarket-1659,Taco Bell,16599 Yonge Street,Newmarket,ON,L3X 2G8,CA,44.0325104,-79.4746524,+1 905-898-0673,https://locations.tacobell.ca/en/on/newmarket/1659
ca-ca-https-locations-tacobell-ca-en-on-newmarket-1760,ca-https-locations-tacobell-ca-en-on-newmarket-1760,Taco Bell,17600 Yonge Street North,Newmarket,ON,L3Y 4Z1,CA,44.0574448,-79.4858624,+1 905-830-1919,https://locations.tacobell.ca/en/on/newmarket/1760
ca-1de6e061-0514-7b72-2b98-69b0a3135d64,1de6e061-0514-7b72-2b98-69b0a3135d64,TACO BELL 6555 LUNDYS LANE,6555 Lundy's Lane Niagara Falls ON L2G 1V1,"Santa Monica, CA, USA",,,CA,43.0896700,-79.1040510,905-357-4336,https://www.tacobell.ca/en/store-locator#1de6e061-0514-7b72-2b98-69b0a3135d64
ca-733bbaa0-560c-dad1-f0ef-cb2d6245eea6,733bbaa0-560c-dad1-f0ef-cb2d6245eea6,Taco Bell 3770 Montrose Rd,3770 Montrose Rd.,Niagara Falls,,,CA,43.1175215,-79.1240848,905-371-0707,https://www.tacobell.ca/en/store-locator#733bbaa0-560c-dad1-f0ef-cb2d6245eea6
ca-ca-https-locations-tacobell-ca-en-on-north-bay-2021,ca-https-locations-tacobell-ca-en-on-north-bay-2021,Taco Bell,2021 Algonquin Avenue,North Bay,ON,P1B 4Z3,CA,46.3327415,-79.4671211,+1 705-995-4473,https://locations.tacobell.ca/en/on/north/bay/2021
ca-f0e097e2-957f-d327-557e-94ee400ada55,f0e097e2-957f-d327-557e-94ee400ada55,TACO BELL 3777 KEELE STREET,3777 Keele Street North York ON M3J 1N5,"Santa Monica, CA, USA",,,CA,43.7588590,-79.4891610,416-630-4050,https://www.tacobell.ca/en/store-locator#f0e097e2-957f-d327-557e-94ee400ada55
ca-998ccd04-b599-0214-997b-043f39b4229d,998ccd04-b599-0214-997b-043f39b4229d,TACO BELL 38 BROADWAY AVENUE,38 Broadway Avenue Orangeville ON L9W 1J4,"Santa Monica, CA, USA",,,CA,43.9210880,-80.0865130,519-941-3393,https://www.tacobell.ca/en/store-locator#998ccd04-b599-0214-997b-043f39b4229d
ca-ca-https-locations-tacobell-ca-en-on-orillia-705-un,ca-https-locations-tacobell-ca-en-on-orillia-705-un,Taco Bell,705 University Avenue,Orillia,ON,L3V 6H2,CA,44.5977541,-79.4528758,+1 249-449-3192,https://locations.tacobell.ca/en/on/orillia/705/un
ca-ca-https-locations-tacobell-ca-en-on-oshawa-419-kin,ca-https-locations-tacobell-ca-en-on-oshawa-419-kin,Taco Bell,419 King St W.,Oshawa,ON,L1J2K5,CA,43.8902242,-78.8793799,+1 905-723-8200,https://locations.tacobell.ca/en/on/oshawa/419/kin
ca-4bb0e430-1068-73df-7007-e05b59b7fe0f,4bb0e430-1068-73df-7007-e05b59b7fe0f,TB 906321 - Oshawa,1326 Simcoe Street N.,Oshawa,,,CA,43.9324700,-78.8793000,+1 (905) 725-9775,https://www.tacobell.ca/en/store-locator#4bb0e430-1068-73df-7007-e05b59b7fe0f
ca-ca-https-locations-tacobell-ca-en-on-ottawa-1200-st,ca-https-locations-tacobell-ca-en-on-ottawa-1200-st,Taco Bell,1200 St-Laurent Blvd.,Ottawa,ON,K1K 3B8,CA,45.4227431,-75.6382835,+1 613-746-7400,https://locations.tacobell.ca/en/on/ottawa/1200/st
ca-ca-https-locations-tacobell-ca-en-on-ottawa-305-rid,ca-https-locations-tacobell-ca-en-on-ottawa-305-rid,Taco Bell,305 Rideau Street,Ottawa,ON,K1N 5Y6,CA,45.4292860,-75.6855271,+1 613-744-1625,https://locations.tacobell.ca/en/on/ottawa/305/rid
ca-ca-https-locations-tacobell-ca-en-on-petawawa-3025,ca-https-locations-tacobell-ca-en-on-petawawa-3025-,Taco Bell,3025 Petawawa Blvd,Petawawa,ON,K8H1X9,CA,45.8897649,-77.2614996,+1 613-687-2526,https://locations.tacobell.ca/en/on/petawawa/3025/
ca-ca-https-locations-tacobell-ca-en-on-peterborough-5,ca-https-locations-tacobell-ca-en-on-peterborough-5,Taco Bell,595 Lansdowne Street West,Peterborough,ON,K9J 1Z1,CA,44.2856834,-78.3292557,+1 705-740-1694,https://locations.tacobell.ca/en/on/peterborough/5
ca-c621dc2f-0e6f-6c35-639c-29acdd6b9ee5,c621dc2f-0e6f-6c35-639c-29acdd6b9ee5,Taco Bell Store T05006 - Pickering Town Centre,1355 Kingston Road Pickering ON L1V 1B8,"Santa Monica, CA, USA",,,CA,43.8363000,-79.0862230,905-837-0774,https://www.tacobell.ca/en/store-locator#c621dc2f-0e6f-6c35-639c-29acdd6b9ee5
ca-0891f69b-96f9-fccc-373a-c5dd14d25d53,0891f69b-96f9-fccc-373a-c5dd14d25d53,TACO BELL 1070 MAJOR MACKENZIE DRIVE EAST,1070 Major Mackenzie Drive East Richmond Hill ON L4S 1P3,"Santa Monica, CA, USA",,,CA,43.8765180,-79.4116310,905-884-3444,https://www.tacobell.ca/en/store-locator#0891f69b-96f9-fccc-373a-c5dd14d25d53
ca-844d0ad6-eb47-e40c-be5f-8a98e52502d5,844d0ad6-eb47-e40c-be5f-8a98e52502d5,TACO BELL SUDBURY CTR,SUDBURY CTR 1349 LASALLE BLVD SUDBURY ON P3A 1Z2,"Santa Monica, CA, USA",,,CA,46.5197710,-80.9464060,705-670-3066,https://www.tacobell.ca/en/store-locator#844d0ad6-eb47-e40c-be5f-8a98e52502d5
ca-0802f12a-8fa8-c1b4-c6e1-8601e4de10b2,0802f12a-8fa8-c1b4-c6e1-8601e4de10b2,Taco Bell 950 Talbot Street,950 Talbot St. Thomas,St. Thomas,,,CA,42.7785440,-81.1802190,+15166333370,https://www.tacobell.ca/en/store-locator#0802f12a-8fa8-c1b4-c6e1-8601e4de10b2
ca-ca-https-locations-tacobell-ca-en-on-sarnia-1337-lo,ca-https-locations-tacobell-ca-en-on-sarnia-1337-lo,Taco Bell,1337 London Road,Sarnia,ON,N7S 1P6,CA,42.9795454,-82.3566127,+1 519-383-7875,https://locations.tacobell.ca/en/on/sarnia/1337/lo
ca-ca-https-locations-tacobell-ca-en-on-sarnia-260-ind,ca-https-locations-tacobell-ca-en-on-sarnia-260-ind,Taco Bell,260 Indian Rd S,Sarnia,ON,N7T 1X5,CA,42.9646247,-82.3759657,+1 519-491-1068,https://locations.tacobell.ca/en/on/sarnia/260/ind
ca-ebcc376e-23d1-31d0-dcf2-e922c1104267,ebcc376e-23d1-31d0-dcf2-e922c1104267,TACO BELL 389 GREAT NORTHERN ROAD,389 Great Northern Road Sault Ste Marie ON P6B 4Z8,"Santa Monica, CA, USA",,,CA,46.5376360,-84.3198160,705-946-2791,https://www.tacobell.ca/en/store-locator#ebcc376e-23d1-31d0-dcf2-e922c1104267
ca-ca-https-locations-tacobell-ca-en-on-sault-ste-mari,ca-https-locations-tacobell-ca-en-on-sault-ste-mari,Taco Bell,293 Bay Street,Sault Ste. Marie,ON,P6A 1X3,CA,46.5128870,-84.3389961,+1 705-251-0631,https://locations.tacobell.ca/en/on/sault/ste/mari
ca-ca-https-locations-tacobell-ca-en-on-scarborough-30,ca-https-locations-tacobell-ca-en-on-scarborough-30,Taco Bell,300 Borough Dr.,Scarborough,ON,M1P 4P5,CA,43.7752887,-79.2578330,+1 416-296-1287,https://locations.tacobell.ca/en/on/scarborough/30
ca-ca-https-locations-tacobell-ca-en-on-scarborough-31,ca-https-locations-tacobell-ca-en-on-scarborough-31,Taco Bell,31 Tapscott Road,Scarborough,ON,M1B 4Y7,CA,43.8068202,-79.2208236,+1 416-292-7140,https://locations.tacobell.ca/en/on/scarborough/31
ca-78676210-fe17-07b4-8ebd-48c39f6080c8,78676210-fe17-07b4-8ebd-48c39f6080c8,TACO BELL 1338 KENNEDY ROAD,1338 Kennedy Road Scarborough ON M1P 1L5,"Santa Monica, CA, USA",,,CA,43.7608470,-79.2799020,416-755-6028,https://www.tacobell.ca/en/store-locator#78676210-fe17-07b4-8ebd-48c39f6080c8
ca-a62f2665-a900-01e1-ff98-6d8223a089c1,a62f2665-a900-01e1-ff98-6d8223a089c1,Taco Bell Store 128005 - Morningside,245 Morningside Avenue Scarborough ON M1E 3E6,"Santa Monica, CA, USA",,,CA,43.7688160,-79.1856200,416-724-7575,https://www.tacobell.ca/en/store-locator#a62f2665-a900-01e1-ff98-6d8223a089c1
ca-ca-https-locations-tacobell-ca-en-on-scarborough-34,ca-https-locations-tacobell-ca-en-on-scarborough-34,Taco Bell,3495 Lawrence Avenue East,Scarborough,ON,M1H 1B3,CA,43.7574808,-79.2293118,+1 416-439-7333,https://locations.tacobell.ca/en/on/scarborough/34
ca-ca-https-locations-tacobell-ca-en-on-scarborough-15,ca-https-locations-tacobell-ca-en-on-scarborough-15,Taco Bell,1571 Sandhurst Circle,Scarborough,ON,M1V 1V2,CA,43.8099457,-79.2694809,+1 416-297-1952,https://locations.tacobell.ca/en/on/scarborough/15
ca-ca-https-locations-tacobell-ca-en-on-st-catharines,ca-https-locations-tacobell-ca-en-on-st-catharines-,Taco Bell,379 Ontario Street,St. Catharines,ON,L2R 5Z6,CA,43.1755281,-79.2668105,+1 905-684-4806,https://locations.tacobell.ca/en/on/st/catharines/
ca-69d0d66c-2288-ebe6-fe8d-bb6b3b18989d,69d0d66c-2288-ebe6-fe8d-bb6b3b18989d,Taco Bell Pen Centre (Food Court),221 Glendale Avenue St. Catharines ON L2T 2K9,"Santa Monica, CA, USA",,,CA,43.1368450,-79.2251320,905-704-0477,https://www.tacobell.ca/en/store-locator#69d0d66c-2288-ebe6-fe8d-bb6b3b18989d
ca-ca-https-locations-tacobell-ca-en-on-stratford-641,ca-https-locations-tacobell-ca-en-on-stratford-641-,Taco Bell,641 Erie Street,Stratford,ON,N5A2N9,CA,43.3562677,-80.9950976,+1 519-271-1499,https://locations.tacobell.ca/en/on/stratford/641/
ca-ca-https-locations-tacobell-ca-en-on-thunder-bay-11,ca-https-locations-tacobell-ca-en-on-thunder-bay-11,Taco Bell,1101 Arthur Street West,Thunder Bay,ON,P7E 5S2,CA,48.3823405,-89.3081862,+1 807-577-2809,https://locations.tacobell.ca/en/on/thunder/bay/11
ca-dc9abe5b-ab84-b2fd-009a-6791560c6e9d,dc9abe5b-ab84-b2fd-009a-6791560c6e9d,TACO BELL 166 SIMCOE STREET,166 Simcoe Street Tillsonburg ON N2G 2J1,"Santa Monica, CA, USA",,,CA,42.8580690,-80.7068910,519-842-8481,https://www.tacobell.ca/en/store-locator#dc9abe5b-ab84-b2fd-009a-6791560c6e9d
ca-ca-https-locations-tacobell-ca-en-on-toronto-257-co,ca-https-locations-tacobell-ca-en-on-toronto-257-co,Taco Bell,257 College Park St.,Toronto,ON,M5T 1R5,CA,43.6577973,-79.3992749,,https://locations.tacobell.ca/en/on/toronto/257/co
ca-ca-https-locations-tacobell-ca-en-on-toronto-900-du,ca-https-locations-tacobell-ca-en-on-toronto-900-du,Taco Bell,900 Dufferin Street,Toronto,ON,M6H 4B1,CA,43.6580182,-79.4349380,+1 416-537-3527,https://locations.tacobell.ca/en/on/toronto/900/du
ca-ca-https-locations-tacobell-ca-en-on-toronto-1620-b,ca-https-locations-tacobell-ca-en-on-toronto-1620-b,Taco Bell,1620 Birchmount Road,Toronto,ON,M1P 2H6,CA,43.7630052,-79.2920449,+1 647-417-1443,https://locations.tacobell.ca/en/on/toronto/1620/b
ca-ae4d76ab-66d9-2b12-84df-ffaddcd211ad,ae4d76ab-66d9-2b12-84df-ffaddcd211ad,TB 906323 - North York,4804-4812 Yonge Street,North York,,,CA,43.7615900,-79.4115000,+1 (647) 417-0278,https://www.tacobell.ca/en/store-locator#ae4d76ab-66d9-2b12-84df-ffaddcd211ad
ca-ca-https-locations-tacobell-ca-en-on-toronto-1800-s,ca-https-locations-tacobell-ca-en-on-toronto-1800-s,Taco Bell,1800 Sheppard Ave E,Toronto,ON,M2J5A7,CA,43.7785466,-79.3431608,+1 416-498-9950,https://locations.tacobell.ca/en/on/toronto/1800/s
ca-ca-https-locations-tacobell-ca-en-on-toronto-3979-j,ca-https-locations-tacobell-ca-en-on-toronto-3979-j,Taco Bell,3979 Jane St,Toronto,ON,M3N 2V2,CA,43.7561514,-79.5155600,+1 416-631-6070,https://locations.tacobell.ca/en/on/toronto/3979/j
ca-1333d23e-c82c-1b39-7f2b-6d9f95f65969,1333d23e-c82c-1b39-7f2b-6d9f95f65969,TACO BELL 444 YONGE STREET,444 Yonge Street Toronto ON M5B 2H4,"Santa Monica, CA, USA",,,CA,43.6610060,-79.3832130,416-596-7869,https://www.tacobell.ca/en/store-locator#1333d23e-c82c-1b39-7f2b-6d9f95f65969
ca-ca-https-locations-tacobell-ca-en-on-toronto-2300-y,ca-https-locations-tacobell-ca-en-on-toronto-2300-y,Taco Bell,2300 Yonge Street,Toronto,ON,M4P 1E4,CA,43.7074103,-79.3990561,+1 416-483-6544,https://locations.tacobell.ca/en/on/toronto/2300/y
ca-ca-https-locations-tacobell-ca-en-on-toronto-6364-y,ca-https-locations-tacobell-ca-en-on-toronto-6364-y,Taco Bell,6364 Yonge Street,Toronto,ON,M2M 3X4,CA,43.7959792,-79.4220731,+1 416-223-4472,https://locations.tacobell.ca/en/on/toronto/6364/y
ca-ca-https-locations-tacobell-ca-en-on-toronto-252-ch,ca-https-locations-tacobell-ca-en-on-toronto-252-ch,Taco Bell,252 Church Street,Toronto,ON,M5B 0E6,CA,43.6561420,-79.3772080,+1 416-364-2442,https://locations.tacobell.ca/en/on/toronto/252/ch
ca-ca-https-locations-tacobell-ca-en-on-toronto-605-ro,ca-https-locations-tacobell-ca-en-on-toronto-605-ro,Taco Bell,605 Rogers Road,Toronto,ON,M6M 1B9,CA,43.6818950,-79.4717835,+1 437-317-3086,https://locations.tacobell.ca/en/on/toronto/605/ro
ca-ca-https-locations-tacobell-ca-en-on-toronto-unit-f,ca-https-locations-tacobell-ca-en-on-toronto-unit-f,Taco Bell,Unit FC11 - 3401 Dufferin St,Toronto,ON,M6A 2T9,CA,43.7255852,-79.4522083,+1 647-925-5947,https://locations.tacobell.ca/en/on/toronto/unit/f
ca-ca-https-locations-tacobell-ca-en-on-toronto-609-da,ca-https-locations-tacobell-ca-en-on-toronto-609-da,Taco Bell,609 Danforth Avenue,Toronto,ON,M4K 1R2,CA,43.6785617,-79.3459003,+1 416-466-6174,https://locations.tacobell.ca/en/on/toronto/609/da
ca-ca-https-locations-tacobell-ca-en-on-toronto-65-fro,ca-https-locations-tacobell-ca-en-on-toronto-65-fro,Taco Bell,"65 Front Street West, Unit 481",Toronto,ON,M5J1E6,CA,43.6446461,-79.3803858,+1 647-398-9420,https://locations.tacobell.ca/en/on/toronto/65/fro
ca-ca-https-locations-tacobell-ca-en-on-toronto-1090-b,ca-https-locations-tacobell-ca-en-on-toronto-1090-b,Taco Bell,1090 Bloor Street West,Toronto,ON,M6H 1M6,CA,43.6604120,-79.4339990,+1 416-516-4645,https://locations.tacobell.ca/en/on/toronto/1090/b
ca-ca-https-locations-tacobell-ca-en-on-vaughan-7028-y,ca-https-locations-tacobell-ca-en-on-vaughan-7028-y,Taco Bell,7028 Yonge Street,Vaughan,ON,L4J 1V7,CA,43.7986080,-79.4207217,+1 905-707-0340,https://locations.tacobell.ca/en/on/vaughan/7028/y
ca-ca-https-locations-tacobell-ca-en-on-vaughan-1-bass,ca-https-locations-tacobell-ca-en-on-vaughan-1-bass,Taco Bell,1 Bass Pro Mills Drive,Vaughan,ON,L4K2M9,CA,43.8256585,-79.5383333,+1 905-669-1778,https://locations.tacobell.ca/en/on/vaughan/1/bass
ca-ca-https-locations-tacobell-ca-en-on-vaughan-2268-r,ca-https-locations-tacobell-ca-en-on-vaughan-2268-r,Taco Bell,2268 Rutherford Road,Vaughan,ON,L4K 2N8,CA,43.8366647,-79.5089416,+1 289-459-2661,https://locations.tacobell.ca/en/on/vaughan/2268/r
ca-ca-https-locations-tacobell-ca-en-on-wallaceburg-16,ca-https-locations-tacobell-ca-en-on-wallaceburg-16,Taco Bell,1644 Dufferin Avenue,Wallaceburg,ON,N8A2X2,CA,42.5936163,-82.4034358,+1 519-627-8593,https://locations.tacobell.ca/en/on/wallaceburg/16
ca-ca-https-locations-tacobell-ca-en-on-wallaceburg-60,ca-https-locations-tacobell-ca-en-on-wallaceburg-60,Taco Bell,60 McNaughton Ave,Wallaceburg,ON,N8A1R9,CA,42.5851442,-82.3853728,+1 519-626-8595,https://locations.tacobell.ca/en/on/wallaceburg/60
ca-f8dedde4-ae68-7ae5-7faa-7e065cbab7dc,f8dedde4-ae68-7ae5-7faa-7e065cbab7dc,TACO BELL 281 MAIN STREET,281 Main Street Wasaga Beach ON L9Z 0B6,"Santa Monica, CA, USA",,,CA,44.5233580,-80.0094480,705-422-0118,https://www.tacobell.ca/en/store-locator#f8dedde4-ae68-7ae5-7faa-7e065cbab7dc
ca-91259b48-89f3-c241-8f0d-4c08f1bdbc58,91259b48-89f3-c241-8f0d-4c08f1bdbc58,TACO BELL 391 WEBER STREET NORTH,391 Weber Street North Waterloo ON N2J 3J2,"Santa Monica, CA, USA",,,CA,43.4837620,-80.5251100,519-885-6680,https://www.tacobell.ca/en/store-locator#91259b48-89f3-c241-8f0d-4c08f1bdbc58
ca-8968d777-c6b5-904f-a15b-f0c06a93edf9,8968d777-c6b5-904f-a15b-f0c06a93edf9,Taco Bell Conestoga (Food Court) ,550 King Street N. Waterloo ON N2L 5W6,"Santa Monica, CA, USA",,,CA,43.4969270,-80.5263840,519-746-9109,https://www.tacobell.ca/en/store-locator#8968d777-c6b5-904f-a15b-f0c06a93edf9
ca-ca-https-locations-tacobell-ca-en-on-welland-70-pri,ca-https-locations-tacobell-ca-en-on-welland-70-pri,Taco Bell,70 Primeway Drive,Welland,ON,L3B 0A1,CA,43.0143005,-79.2281376,+1 905-714-4950,https://locations.tacobell.ca/en/on/welland/70/pri
ca-0fe76137-1204-8956-dc1e-68facc7283b6,0fe76137-1204-8956-dc1e-68facc7283b6,TB 906320 - Whitby,86 Thickson Road South,Whitby,,,CA,43.8828700,-78.9121000,905-668-6151,https://www.tacobell.ca/en/store-locator#0fe76137-1204-8956-dc1e-68facc7283b6
ca-ca-https-locations-tacobell-ca-en-on-windsor-1655-m,ca-https-locations-tacobell-ca-en-on-windsor-1655-m,Taco Bell,1655 Manning Road,Windsor,ON,N8N 5B5,CA,42.3074366,-82.8700473,+1 519-735-5000,https://locations.tacobell.ca/en/on/windsor/1655/m
ca-ca-https-locations-tacobell-ca-en-on-windsor-3100-h,ca-https-locations-tacobell-ca-en-on-windsor-3100-h,Taco Bell,3100 Howard Ave,Windsor,ON,N8X3Y8,CA,42.2747441,-83.0012598,+1 519-969-9028,https://locations.tacobell.ca/en/on/windsor/3100/h
ca-ca-https-locations-tacobell-ca-en-on-windsor-1790-h,ca-https-locations-tacobell-ca-en-on-windsor-1790-h,Taco Bell,1790 Huron Church Rd,Windsor,ON,N9C2L4,CA,42.2838409,-83.0551992,+1 519-977-0662,https://locations.tacobell.ca/en/on/windsor/1790/h
ca-142abf1f-8a55-106f-d980-112a40afd477,142abf1f-8a55-106f-d980-112a40afd477,Taco Bell 3054 DOUGALL AVE N,3054 Dougall Avenue,Windsor,,,CA,42.2717000,-83.0124470,+15199667688,https://www.tacobell.ca/en/store-locator#142abf1f-8a55-106f-d980-112a40afd477
ca-41c433a8-27ac-49ff-62fe-3a4eb6849512,41c433a8-27ac-49ff-62fe-3a4eb6849512,Taco Bell 3419 TECUMSEH RD N,3419 Tecumseh Rd East,Windsor,,,CA,42.3044500,-82.9814810,+15199444613,https://www.tacobell.ca/en/store-locator#41c433a8-27ac-49ff-62fe-3a4eb6849512
ca-b8b3c80a-587e-ac83-b8c3-63ea7ba060ce,b8b3c80a-587e-ac83-b8c3-63ea7ba060ce,Taco Bell 6707 TECUMSEH RD E N,6707 Tecumseh Road East,Windsor,,,CA,42.3116570,-82.9430590,+1 519-948-3425,https://www.tacobell.ca/en/store-locator#b8b3c80a-587e-ac83-b8c3-63ea7ba060ce
ca-77c90acd-48d5-03c4-32c1-47f0136e3315,77c90acd-48d5-03c4-32c1-47f0136e3315,Taco Bell 300 TECUMSEH RD N,300 Tecumseh Rd East,Windsor,,,CA,42.2980190,-83.0198860,+1 (519) 971-7268,https://www.tacobell.ca/en/store-locator#77c90acd-48d5-03c4-32c1-47f0136e3315
ca-ca-https-locations-tacobell-ca-en-on-windsor-301-ou,ca-https-locations-tacobell-ca-en-on-windsor-301-ou,Taco Bell,301 Ouellette Ave,Windsor,ON,N9A 4J1,CA,42.3147730,-83.0362744,+1 519-915-1665,https://locations.tacobell.ca/en/on/windsor/301/ou
ca-29db9dc7-8a87-7e29-4f18-8482cc67699c,29db9dc7-8a87-7e29-4f18-8482cc67699c,TACO BELL 4431 HIGHWAY 7,4431 Highway #7 Woodbridge ON L4L 5W7,"Santa Monica, CA, USA",,,CA,43.7840080,-79.5703940,9052640156,https://www.tacobell.ca/en/store-locator#29db9dc7-8a87-7e29-4f18-8482cc67699c
ca-ca-https-locations-tacobell-ca-en-sk-regina-4440-al,ca-https-locations-tacobell-ca-en-sk-regina-4440-al,Taco Bell,4440 Albert St.,Regina,SK,S4S 6B4,CA,50.4090214,-104.6194220,+1 306-585-3131,https://locations.tacobell.ca/en/sk/regina/4440/al
ca-ca-https-locations-tacobell-ca-en-sk-saskatoon-950,ca-https-locations-tacobell-ca-en-sk-saskatoon-950-,Taco Bell,950 Melville Ave,Saskatoon,SK,S7T 0C9,CA,52.0837182,-106.6469848,+1 306-954-4992,https://locations.tacobell.ca/en/sk/saskatoon/950/
ca-ca-https-locations-tacobell-ca-en-sk-saskatoon-1306,ca-https-locations-tacobell-ca-en-sk-saskatoon-1306,Taco Bell,1306 22nd St,Saskatoon,SK,S7M 0S8,CA,52.1294760,-106.6895306,+1 306-952-3485,https://locations.tacobell.ca/en/sk/saskatoon/1306
ca-ca-https-locations-tacobell-ca-en-sk-saskatoon-2830,ca-https-locations-tacobell-ca-en-sk-saskatoon-2830,Taco Bell,2830 Millar Avenue,Saskatoon,SK,S7K 5X7,CA,52.1741496,-106.6459817,,https://locations.tacobell.ca/en/sk/saskatoon/2830
ca-ca-https-locations-tacobell-ca-en-sk-saskatoon-2941,ca-https-locations-tacobell-ca-en-sk-saskatoon-2941,Taco Bell,2941 8th St,Saskatoon,SK,S7H 0V4,CA,52.1151744,-106.6115721,+1 306-952-0890,https://locations.tacobell.ca/en/sk/saskatoon/2941
cy-cy-4205169695,cy-4205169695,Taco Bell,Λεωφόρος Τάφων των Βασιλέων,Δήμος Πάφου,Κύπρος,8046,CY,34.7648106,32.4129417,,
cy-cy-12405285418,cy-12405285418,Taco Bell,Themistokli Dervi,Λευκωσία,Κύπρος,1065,CY,35.1635042,33.3586561,,
cy-cy-13730216338,cy-13730216338,Taco Bell,5 Evropaikis Enosis Avenue,Δήμος Λάρνακας,Κύπρος,6043,CY,34.9249384,33.6070005,,
cy-cy-1390735785,cy-1390735785,Taco Bell,Kambou,Strovolos,Κύπρος,2030,CY,35.1304453,33.3709363,,
cy-cy-5622373057,cy-5622373057,Taco Bell,285 Fragklinou Rousvelt,Limassol,,3150,CY,34.6525656,32.9973457,+357 25716823,
es-1175,1175,Taco Bell Meritxell,"Avda. Meritxell, 122",Andorra la Vella,-,AD500,ES,42.5083420,1.5266620,,https://tacobell.es/es/restaurantes/andorra la vella/1175
es-1087,1087,Taco Bell C.C. Marineda City,"C.C. Marineda City - Estrada Baños de Arteixo, 43",A Coruña,A Coruña,15008,ES,43.3451134,-8.4277888,,https://tacobell.es/es/restaurantes/a coruña/1087
es-1038,1038,Taco Bell Senra,"Rúa da Senra, 7",Santiago de Compostela,A Coruña,15702,ES,42.8767503,-8.5452202,,https://tacobell.es/es/restaurantes/santiago de compostela/1038
es-1128,1128,Taco Bell C.C. As Cancelas,"C.C. As Cancelas - Avda. do Camiño Francés, 3",Santiago de Compostela,A Coruña,15703,ES,42.8889909,-8.5263343,,https://tacobell.es/es/restaurantes/santiago de compostela/1128
es-1044,1044,Taco Bell Albacete,"C/ Tinte, 22",Albacete,Albacete,02002,ES,38.9923326,-1.8551164,,https://tacobell.es/es/restaurantes/albacete/1044
es-1065,1065,"Taco Bell Rambla, Alicante","Rambla Méndez Núñez, 23",Alicante,Alicante,03002,ES,38.3454470,-0.4840314,,https://tacobell.es/es/restaurantes/alicante/1065
es-1068,1068,Taco Bell C.C. Plaza Mar 2,"C.C. Plaza Mar 2 - Avda. de Denia, s/n",Alicante,Alicante,03016,ES,38.3539409,-0.4723477,,https://tacobell.es/es/restaurantes/alicante/1068
es-1133,1133,Taco Bell Vistahermosa,"Avda. de Antonio Ramos Carratalá, 56-60",Alicante,Alicante,03015,ES,38.3699357,-0.4650599,,https://tacobell.es/es/restaurantes/alicante/1133
es-1178,1178,Taco Bell Benidorm,"Avenida de Alcoy, 7",Alicante,Alicante,03503,ES,38.5360443,-0.1252292,,https://tacobell.es/es/restaurantes/alicante/1178
es-1080,1080,Taco Bell Finestrat,"Avda. Picasso, 41",Benidorm,Alicante,03509,ES,38.5334734,-0.1726042,,https://tacobell.es/es/restaurantes/benidorm/1080
es-1152,1152,Taco Bell C.C. L´Aljub,"C.C. L´Aljub - C/ Jacarilla, 7",Elche,Alicante,03205,ES,38.2621888,-0.7208713,,https://tacobell.es/es/restaurantes/elche/1152
es-1150,1150,Taco Bell C.C. La Zenia Boulevard,"C.C. La Zenia Boulevard - C/ Jade, 2",Orihuela,Alicante,03189,ES,37.9307180,-0.7362986,,https://tacobell.es/es/restaurantes/orihuela/1150
es-1157,1157,"Taco Bell Cines Aana, San Juan","Cines Aana - Avda. Miguel Hernández, 42, local 4",San Juan,Alicante,03550,ES,38.3984156,-0.4284762,,https://tacobell.es/es/restaurantes/san juan/1157
es-1099,1099,Taco Bell C.C. The Outlet Stores Alicante,"C.C. The Outlet Stores Alicante - C/ Alicante, 94, Local 22",Sant Vicent del Raspeig,Alicante,03690,ES,38.3828480,-0.5063850,,https://tacobell.es/es/restaurantes/sant vicent del raspeig/1099
es-1004,1004,"Taco Bell C.C. Ozone, Torrevieja","C.C. Ozone - Avda. Rosa Mazón Valero , s/n",Torrevieja,Alicante,03184,ES,37.9908291,-0.6816465,,https://tacobell.es/es/restaurantes/torrevieja/1004
es-1187,1187,Taco Bell Torrevieja,Paseo de la libertad 03181 Torrevieja,Torrevieja,Alicante,03181,ES,37.9736410,-0.6790600,,https://tacobell.es/es/restaurantes/torrevieja/1187
es-1093,1093,Taco Bell C.C. Torrecárdenas,"C.C. Torrecárdenas -  C/ Médico Francisco Pérez Company, 19",Almería,Almería,04009,ES,36.8618023,-2.4332947,,https://tacobell.es/es/restaurantes/almería/1093
es-1126,1126,"Taco Bell P.C. Gran Plaza Shopping, Roquetas","P.C. Gran Plaza Shopping - Carretera de Alicún, s/n, Local 3",Roquetas de Mar,Almería,04740,ES,36.7751839,-2.6131971,,https://tacobell.es/es/restaurantes/roquetas de mar/1126
es-1031,1031,Taco Bell Avilés,"C/ Cámara, 53",Avilés,Asturias,33401,ES,43.5586976,-5.9251830,,https://tacobell.es/es/restaurantes/avilés/1031
es-1017,1017,Taco Bell Gijón,"C/ San Bernardo, 89",Gijón,Asturias,33201,ES,43.5377798,-5.6597829,,https://tacobell.es/es/restaurantes/gijón/1017
es-1016,1016,"Taco Bell C.C. Parque Principado, Oviedo","C.C. Parque Principado - Autovía Ruta de la Plata, Km 4,5",Paredes El Cuetu,Asturias,33429,ES,43.3896902,-5.8043037,,https://tacobell.es/es/restaurantes/paredes el cuetu/1016
es-1085,1085,Taco Bell C.C. Faro,C.C. El Faro -  Avda. Elvas s/n,Badajoz,Badajoz,06006,ES,38.8851493,-7.0201128,,https://tacobell.es/es/restaurantes/badajoz/1085
es-1006,1006,Taco Bell Juan de Borbón,"Passeig de Joan de Borbó, 21",Barcelona,Barcelona,08003,ES,41.3799023,2.1877369,,https://tacobell.es/es/restaurantes/barcelona/1006
es-1010,1010,Taco Bell C.C. Maquinista,"C.C. La Maquinista - Passeig Potosi, 2",Barcelona,Barcelona,08030,ES,41.4410509,2.1984735,,https://tacobell.es/es/restaurantes/barcelona/1010
es-1018,1018,Taco Bell C.C. SOM Multiespai,"C.C. SOM Multiespai - Avinguda de Río de Janeiro, 42",Barcelona,Barcelona,08016,ES,41.4354349,2.1815526,,https://tacobell.es/es/restaurantes/barcelona/1018
es-1029,1029,Taco Bell Rambla,"La Rambla, 96 ",Barcelona,Barcelona,08002,ES,41.3822244,2.1727140,,https://tacobell.es/es/restaurantes/barcelona/1029
es-1084,1084,Taco Bell Ronda Universidad,"Ronda de la Universitat, 33",Barcelona,Barcelona,08007,ES,41.3871499,2.1674676,,https://tacobell.es/es/restaurantes/barcelona/1084
es-1095,1095,Taco Bell Ronda San Pere,"Ronda Sant Pere, 3",Barcelona,Barcelona,08010,ES,41.3883502,2.1707171,,https://tacobell.es/es/restaurantes/barcelona/1095
es-1097,1097,Taco Bell Sagrada Familia,"Carrer de Provença, 441",Barcelona,Barcelona,08025,ES,41.4043401,2.1740752,,https://tacobell.es/es/restaurantes/barcelona/1097
es-1102,1102,Taco Bell C.C. Diagonal Mar,"C.C. Diagonal Mar - Avda. Diagonal, 3, Local #3560B",Barcelona,Barcelona,08019,ES,41.4102787,2.2157951,,https://tacobell.es/es/restaurantes/barcelona/1102
es-1109,1109,Taco Bell Ferran,"Carrer de Ferran, 23",Barcelona,Barcelona,28223,ES,41.3812161,2.1752036,,https://tacobell.es/es/restaurantes/barcelona/1109
es-1142,1142,Taco Bell C.C. Maremagnum,"C.C. Maremagnum - Molld'Espanya, 5",Barcelona,Barcelona,08039,ES,41.3755460,2.1832724,,https://tacobell.es/es/restaurantes/barcelona/1142
es-1172,1172,Taco Bell C.C. Arenas de Barcelona,"Gran Via de les Corts Catalanes, 385",Barcelona,Barcelona,08015,ES,41.3764245,2.1495011,,https://tacobell.es/es/restaurantes/barcelona/1172
es-1111,1111,"Taco Bell C.C. Ànecblau, Castelldefels","C.C. Ànecblau - Avda. del Canal Olímpic, 24",Castelldefels,Barcelona,08860,ES,41.2821359,1.9855458,,https://tacobell.es/es/restaurantes/castelldefels/1111
es-1188,1188,Taco Bell Splau,Av. Del Baix Llobregat s/n,Cornella de Llobregat,Barcelona,08940,ES,41.3475581,2.0752835,,https://tacobell.es/es/restaurantes/cornella de llobregat/1188
es-1003,1003,Taco Bell C.C. La Farga,"C.C. La Farga - Av. de Josep Tarradellas i Joan, Local 32",L'Hospitalet de Llobregat,Barcelona,08901,ES,41.3629917,2.1047597,,https://tacobell.es/es/restaurantes/l'hospitalet de llobregat/1003
es-1104,1104,Taco Bell C.C. Sant Boi,"C.C. Sant Boi, Carrer de les Alberedes, 2-10, Local #04",Sant Boi de Llobregat,Barcelona,08830,ES,41.3321441,2.0528193,,https://tacobell.es/es/restaurantes/sant boi de llobregat/1104
es-1169,1169,Taco Bell Parc Valles,"C.C. Parc Vallés, Avda. del Textil, s/n,",Terrassa,Barcelona,08223,ES,41.5459340,2.0262930,,https://tacobell.es/es/restaurantes/terrassa/1169
es-1053,1053,"Taco Bell Vic, Mas d'en Prat","Carretera de Manlleu, 90-92",Vic,Barcelona,08500,ES,41.9453975,2.2588384,,https://tacobell.es/es/restaurantes/vic/1053
es-1162,1162,Taco Bell Ronda Europa,"Avinguda d´Eduard Toldrà, 68",Vilanova i la Geltrú,Barcelona,08800,ES,41.2298568,1.7395681,,https://tacobell.es/es/restaurantes/vilanova i la geltrú/1162
es-1028,1028,"Taco Bell C.C. Max Ocio, Barakaldo","C.C. Max Ocio - Barrio, Kareaga Kalea, s/n",Barakaldo,Bizkaia,48903,ES,43.2875502,-3.0075091,,https://tacobell.es/es/restaurantes/barakaldo/1028
es-1015,1015,"Taco Bell Licenciado Poza, Bilbao","C/ Licenciado Poza, 48",Bilbao,Bizkaia,48013,ES,43.2627396,-2.9424977,,https://tacobell.es/es/restaurantes/bilbao/1015
es-1021,1021,"Taco Bell Bilbao, Buenos Aires","C/ Buenos Aires, 13",Bilbao,Bizkaia,48001,ES,43.2616112,-2.9264727,,https://tacobell.es/es/restaurantes/bilbao/1021
es-1027,1027,"Taco Bell C.C. Artea, Leioa","C.C. Artea - C/ Barrio Peruri, 33",Leioa,Bizkaia,48940,ES,43.3421361,-2.9895900,,https://tacobell.es/es/restaurantes/leioa/1027
es-1030,1030,"Taco Bell C.C. Ballonti, Portugalete","C.C. Ballonti - Ballonti Etorb, 1",Portugalete,Bizkaia,48920,ES,43.3110601,-3.0216808,,https://tacobell.es/es/restaurantes/portugalete/1030
es-1020,1020,"Taco Bell Plaza Mayor, Burgos","Plaza Mayor, 20",Burgos,Burgos,09003,ES,42.3414786,-3.7014833,,https://tacobell.es/es/restaurantes/burgos/1020
es-1186,1186,Taco Bell Bahia Santander,"C. Enrique Gran, 2",Cantabria,Cantabria,39600,ES,43.4264413,-3.8404249,,https://tacobell.es/es/restaurantes/cantabria/1186
es-1078,1078,Taco Bell C.C. La Salera,"C.C. Salera - Avda. Enrique Gimeno, 82",Castellón de la Plana,Castellón,12006,ES,39.9796258,-0.0631546,,https://tacobell.es/es/restaurantes/castellón de la plana/1078
es-1148,1148,Taco Bell Villareal,"Avda. de Francia, 42",Villarreal,Castellón,12540,ES,39.9348123,-0.0953967,,https://tacobell.es/es/restaurantes/villarreal/1148
es-1149,1149,Taco Bell Cáceres,"Avda. Antonio Hurtado, 8",Cáceres,Cáceres,10002,ES,39.4673156,-6.3782213,,https://tacobell.es/es/restaurantes/cáceres/1149
es-1110,1110,Taco Bell Algeciras,"Avda. 28 de Febrero, s/n, Parcela TE3.2C U.E.5.UE.9 ""LOS PASTORES""",Algeciras,Cádiz,11207,ES,36.1114754,-5.4525839,,https://tacobell.es/es/restaurantes/algeciras/1110
es-1170,1170,Taco Bell Chiclana,"Urbisur, Avda. De los Descubrimientos, 107D",Chiclana de la Frontera,Cádiz,11130,ES,36.4302750,-6.1453480,,https://tacobell.es/es/restaurantes/chiclana de la frontera/1170
es-1120,1120,Taco Bell C.C. LUZ Shopping,"C.C. Luz Shopping - Ronda Aurora Boreal, s/n, local 27D",Jerez de la Frontera,Cádiz,11408,ES,36.6938944,-6.1598463,,https://tacobell.es/es/restaurantes/jerez de la frontera/1120
es-1067,1067,Taco Bell C.C. Bahía Sur,"C.C. Bahía Sur - C/ Caño Herrera, s/n",San Fernando,Cádiz,11100,ES,36.4725053,-6.2088984,,https://tacobell.es/es/restaurantes/san fernando/1067
es-1056,1056,Taco Bell C.C. Arcángel,C.C. El Arcángel - Avda. del Arcángel s/n,Córdoba,Córdoba,14010,ES,37.8781505,-4.7662257,,https://tacobell.es/es/restaurantes/córdoba/1056
es-1057,1057,Taco Bell Córdoba Brillante,"Avda. del Brillante, 26",Córdoba,Córdoba,14012,ES,37.8981574,-4.7858525,,https://tacobell.es/es/restaurantes/córdoba/1057
es-1022,1022,"Taco Bell C.C. Garbera, Donosti","C.C. Garbera - Garbera Zeharbidea, Garberako, 1",Donosti,Gipuzkoa,20017,ES,43.3096130,-1.9431294,,https://tacobell.es/es/restaurantes/donosti/1022
es-1164,1164,Taco Bell Platja D’Aro,"Avinguda de la Pau, 20",Playa de Aro,Girona,17250,ES,41.8151608,3.0651708,,https://tacobell.es/es/restaurantes/playa de aro/1164
es-1047,1047,"Taco Bell C.C. Espai Gironès, Salt","C.C. Espai Gironès - Camí dels Carlins, 10",Salt,Girona,17190,ES,41.9665244,2.7810511,,https://tacobell.es/es/restaurantes/salt/1047
es-1076,1076,Taco Bell C.C. Nevada Shopping,"C.C. Nevada Shopping - C/ Hipócrates, s/n",Armilla,Granada,18100,ES,37.1449798,-3.6143269,,https://tacobell.es/es/restaurantes/armilla/1076
es-1092,1092,"Taco Bell C.C. Alameda, Granada Norte","C.C. Alameda - C/ Luis Buñuel, 6",Pulianas,Granada,18197,ES,37.2128971,-3.6209073,,https://tacobell.es/es/restaurantes/pulianas/1092
es-1054,1054,Taco Bell Guadalajara,"C/ Toledo, 10",Guadalajara,Guadalajara,19002,ES,40.6263702,-3.1620687,,https://tacobell.es/es/restaurantes/guadalajara/1054
es-1094,1094,Taco Bell C.C. Holea,"C.C. Holea - Ronda Exterior Zona Sur, s/n",Huelva,Huelva,21007,ES,37.2726932,-6.9196030,,https://tacobell.es/es/restaurantes/huelva/1094
es-1072,1072,"Taco Bell C.C. Momentum Plaza, Magaluf","C.C. Momentum Plaza - Avda. Olivera, 4",Magaluf,Islas Baleares,07181,ES,39.5065297,2.5324335,,https://tacobell.es/es/restaurantes/magaluf/1072
es-1069,1069,"Taco Bell C.C. Ocimax, Mallorca","C.C. Ocimax - Carrer del Bisbe Pere de Puigdorfila, 1",Palma,Islas Baleares,07010,ES,39.5954344,2.6484653,,https://tacobell.es/es/restaurantes/palma/1069
es-1071,1071,"Taco Bell C.C. Fan, Mallorca","C.C. Fan - Carrer del Cardenal Rossell, s/n",Palma,Islas Baleares,07007,ES,39.5539944,2.7056137,,https://tacobell.es/es/restaurantes/palma/1071
es-1091,1091,Taco Bell Palma de Mallorca,"Plaza De España, 4",Palma,Islas Baleares,07002,ES,39.5764250,2.6530723,,https://tacobell.es/es/restaurantes/palma/1091
es-1147,1147,Taco Bell C.C. Porto Pi,"C.C. Porto Pi - Avda. Gabriel Roca, 54",Palma,Islas Baleares,07015,ES,39.5511049,2.6217936,,https://tacobell.es/es/restaurantes/palma/1147
es-1167,1167,Taco Bell C.C. Jaén Plaza,C.C. Jaén Plaza - Paraje de las Lagunillas,Jaén,Jaén,23009,ES,37.7915500,-3.7768300,,https://tacobell.es/es/restaurantes/jaén/1167
es-1032,1032,Taco Bell Logroño,"C/ Bretón De Los Herreros, 23",Logroño,La Rioja,26001,ES,42.4650754,-2.4493442,,https://tacobell.es/es/restaurantes/logroño/1032
es-1114,1114,Taco Bell C.C. Las Arenas,"C.C. Las Arenas - Ctra. del Rincón, s/n",Las Palmas de Gran Canaria,Las Palmas,35010,ES,28.1291901,-15.4504822,,https://tacobell.es/es/restaurantes/las palmas de gran canaria/1114
es-1117,1117,Taco Bell C.C. Alisios,"C.C. Alisios - C/ Hermanos Domínguez Santana , Carr. Nueva De San Lorenzo, 15, 308 s/n,",Las Palmas de Gran Canaria,Las Palmas,35018,ES,28.0941254,-15.4769010,,https://tacobell.es/es/restaurantes/las palmas de gran canaria/1117
es-1155,1155,Taco Bell C.C. Las Terrazas,"C.C. Las Terrazas- Autovía GC - 1 Km (Salida 6B) Planta Baja, Local R16b",Telde,Las Palmas,35220,ES,28.0289722,-15.3938817,,https://tacobell.es/es/restaurantes/telde/1155
es-1026,1026,Taco Bell León,"Avda. Independencia, 4",León,León,24003,ES,42.5975381,-5.5721216,,https://tacobell.es/es/restaurantes/león/1026
es-1059,1059,Taco Bell Cogul,"Carrer del Cogul 3, Parcela Central Norte",Cogul,Lleida,25191,ES,41.6142913,0.6561434,,https://tacobell.es/es/restaurantes/cogul/1059
es-1145,1145,Taco Bell C.C. As Termas,"C.C. As Termas - Avda. Infanta Elena, 213",Lugo,Lugo,27003,ES,43.0368879,-7.5685421,,https://tacobell.es/es/restaurantes/lugo/1145
es-1116,1116,Taco Bell La Garena,"Polígono industrial La Garena - C/ Antonio Mingote, 5",Alcalá de Henares,Madrid,28802,ES,40.4771013,-3.3929224,,https://tacobell.es/es/restaurantes/alcalá de henares/1116
es-1140,1140,Taco Bell C.C. Quadernillos,C.C. Quadernillos - Avda. Don Juan Tenorio s/n,Alcalá de Henares,Madrid,28805,ES,40.5055867,-3.3310976,,https://tacobell.es/es/restaurantes/alcalá de henares/1140
es-1048,1048,Taco Bell C.C. Alcora Plaza,"C.C. Alcora Plaza - Avda. de Europa, 22",Alcorcón,Madrid,28922,ES,40.3445323,-3.8543307,,https://tacobell.es/es/restaurantes/alcorcón/1048
es-1050,1050,"Taco Bell Ensanche, Alcorcón","Avda. Primero de Mayo - C/ Bucraa, 2",Alcorcón,Madrid,28922,ES,40.3283225,-3.8364302,,https://tacobell.es/es/restaurantes/alcorcón/1050
es-1055,1055,Taco Bell C.C. Plaza Loranca 2,"C.C. Plaza Loranca 2 - Avda. de Pablo Iglesias, 17, Local 123",Alcorcón,Madrid,28942,ES,40.3033359,-3.8321475,,https://tacobell.es/es/restaurantes/alcorcón/1055
es-1064,1064,Taco Bell C.C. TresAguas,"C.C. TresAguas - Avda. de América, 7-9",Alcorcón,Madrid,28922,ES,40.3579683,-3.8325977,,https://tacobell.es/es/restaurantes/alcorcón/1064
es-1096,1096,Taco Bell C.C. Intu Xanadú,"C.C. Intu Xanadú - C/Puerto de Navacerrada, s/n - Autovía A-5, Km. 23,5",Arroyomolinos,Madrid,28939,ES,40.2997678,-3.9261352,,https://tacobell.es/es/restaurantes/arroyomolinos/1096
es-1112,1112,"Taco Bell C.C. el Ventanal de la Sierra, Colmenar","C.C. el Ventanal de la Sierra - Avda. De la Tejera, 2",Colmenar Viejo,Madrid,28770,ES,40.6592060,-3.7548759,,https://tacobell.es/es/restaurantes/colmenar viejo/1112
es-1058,1058,Taco Bell C.C. Plaza de la Estación,"C.C. Plaza de la Estación - C/ Hungría, 8, Local 6, Planta alta",Fuenlabrada,Madrid,28943,ES,40.2837173,-3.8017128,,https://tacobell.es/es/restaurantes/fuenlabrada/1058
es-1000,1000,Taco Bell C.C. Nassica,"C.C. Nassica - Av. Río Guadalquivir 13, local Amp 15",Getafe,Madrid,28906,ES,40.2728013,-3.6957327,,https://tacobell.es/es/restaurantes/getafe/1000
es-1159,1159,"Taco Bell Getafe, Calle Madrid","C/ Madrid, 41",Getafe,Madrid,28901,ES,40.3072118,-3.7303963,,https://tacobell.es/es/restaurantes/getafe/1159
es-1039,1039,Taco Bell C.C. Heron City Las Rozas,"C.C. Heron-City Las Rozas - C/Camilo José Cela, 2 Local 4",Las Rozas,Madrid,28232,ES,40.5164549,-3.8981833,,https://tacobell.es/es/restaurantes/las rozas/1039
es-1008,1008,Taco Bell  C.C. Westfield Parquesur,"C.C. Westfield Parquesur - Avda. Gran Bretana, s/n",Leganés,Madrid,28916,ES,40.3390946,-3.7336135,,https://tacobell.es/es/restaurantes/leganés/1008
es-1049,1049,Taco Bell Fuente Honda,"Plaza De La Fuente Honda, 9-10",Leganés,Madrid,28911,ES,40.3283919,-3.7664032,,https://tacobell.es/es/restaurantes/leganés/1049
es-1079,1079,Taco Bell C.C. Sambil Outlet Madrid,"C.C. Sambil Outlet Madrid - C/ Mondragón, s/n",Leganés,Madrid,28917,ES,40.3590577,-3.7759441,,https://tacobell.es/es/restaurantes/leganés/1079
es-1011,1011,Taco Bell Princesa,"C/ Princesa, 3",Madrid,Madrid,28008,ES,40.4249661,-3.7124723,,https://tacobell.es/es/restaurantes/madrid/1011
es-1014,1014,Taco Bell Avda Poblados,"C/ Hilario Herranz Establos, 12",Madrid,Madrid,28054,ES,40.3726009,-3.7294469,,https://tacobell.es/es/restaurantes/madrid/1014
es-1042,1042,Taco Bell Preciados,"C/ Preciados, 29",Madrid,Madrid,28013,ES,40.4195652,-3.7063622,,https://tacobell.es/es/restaurantes/madrid/1042
es-1062,1062,Taco Bell C.C. La Gavia,"C.C. La Gavia - C/ Adolfo Bioy Casares 2, Local A00011",Madrid,Madrid,28051,ES,40.3693422,-3.5991891,,https://tacobell.es/es/restaurantes/madrid/1062
es-1070,1070,Taco Bell C.C. Islazul,"C.C. Islazul - C/ Calderilla, 1",Madrid,Madrid,28054,ES,40.3634358,-3.7385714,,https://tacobell.es/es/restaurantes/madrid/1070
es-1077,1077,Taco Bell Montera,"C/ Montera, 45",Madrid,Madrid,28013,ES,40.4194621,-3.7019889,,https://tacobell.es/es/restaurantes/madrid/1077
es-1083,1083,Taco Bell C.C. Vaguada,"C.C. La Vaguada - Avda. de Monforte de Lemos, 36",Madrid,Madrid,28029,ES,40.4794348,-3.7084490,,https://tacobell.es/es/restaurantes/madrid/1083
es-1086,1086,Taco Bell Plaza Castilla,"Paseo de la Castellana, 191",Madrid,Madrid,28046,ES,40.4674058,-3.6896360,,https://tacobell.es/es/restaurantes/madrid/1086
es-1089,1089,Taco Bell Moncloa,"C/ Isaac Peral, 4",Madrid,Madrid,28015,ES,40.4352725,-3.7181331,,https://tacobell.es/es/restaurantes/madrid/1089
es-1100,1100,Taco Bell Atocha,"Plaza Emperador Carlos V, 11",Madrid,Madrid,28012,ES,40.4089714,-3.6925985,,https://tacobell.es/es/restaurantes/madrid/1100
es-1105,1105,Taco Bell Concha Espina,"Avda. Concha Espina, 6",Madrid,Madrid,28036,ES,40.4517853,-3.6888863,,https://tacobell.es/es/restaurantes/madrid/1105
es-1106,1106,Taco Bell Las Mercedes,"Polígono Industrial Las Mercedes - C/ Campezo, 7",Madrid,Madrid,28022,ES,40.4443797,-3.5819823,,https://tacobell.es/es/restaurantes/madrid/1106
es-1118,1118,Taco Bell Arenal,"C/ Arenal, 6",Madrid,Madrid,28013,ES,40.4170949,-3.7052886,,https://tacobell.es/es/restaurantes/madrid/1118
es-1121,1121,Taco Bell C.C. Príncipe Pío,"C.C. Príncipe Pío - Paseo de la Florida, 2",Madrid,Madrid,28008,ES,40.4219702,-3.7208702,,https://tacobell.es/es/restaurantes/madrid/1121
es-1123,1123,Taco Bell Sanchinarro,"C/ Príncipe Carlos, 50",Madrid,Madrid,28050,ES,40.4938431,-3.6557865,,https://tacobell.es/es/restaurantes/madrid/1123
es-1124,1124,Taco Bell C.C. Palacio de Hielo,"C.C. Palacio de Hielo - C/ de Silvano, 77",Madrid,Madrid,28043,ES,40.4633608,-3.6373233,,https://tacobell.es/es/restaurantes/madrid/1124
es-1127,1127,Taco Bell Mayor,"C/ Mayor, 4",Madrid,Madrid,28013,ES,40.4166006,-3.7050768,,https://tacobell.es/es/restaurantes/madrid/1127
es-1129,1129,Taco Bell C.C. Plenilunio,"C.C. Plenilunio - C/ de Aracne, s/n",Madrid,Madrid,28022,ES,40.4468818,-3.5872502,,https://tacobell.es/es/restaurantes/madrid/1129
es-1135,1135,Taco Bell Avda Andalucía,"Avda. de los Poblados, 189 (esq. Avda. de Andalucía)",Madrid,Madrid,28041,ES,40.3710218,-3.6951653,,https://tacobell.es/es/restaurantes/madrid/1135
es-1137,1137,Taco Bell Alcalá 490,"C/ Alcalá, 490",Madrid,Madrid,28027,ES,40.4398875,-3.6297359,,https://tacobell.es/es/restaurantes/madrid/1137
es-1141,1141,Taco Bell Paseo de Extremadura,"Paseo de Extremadura, 133",Madrid,Madrid,28011,ES,40.4102959,-3.7372184,,https://tacobell.es/es/restaurantes/madrid/1141
es-1160,1160,Taco Bell C.C. Ciudad Tres Cantos,C.C. Ciudad Tres Cantos - Avda. de los Labradores 9-11,Madrid,Madrid,28760,ES,40.5998700,-3.7076600,,https://tacobell.es/es/restaurantes/madrid/1160
es-1168,1168,Taco Bell Goya,"Calle Goya, 54,",Madrid,Madrid,28001,ES,40.4246598,-3.6781863,,https://tacobell.es/es/restaurantes/madrid/1168
es-1173,1173,Taco Bell Albufera,"Av. de la Albufera, 1",Madrid,Madrid,28038,ES,40.3983279,-3.6687441,,https://tacobell.es/es/restaurantes/madrid/1173
es-1174,1174,Taco Bell Arganda,"Av. del Cañal, 25",Madrid,Madrid,28500,ES,40.3100441,-3.4806109,,https://tacobell.es/es/restaurantes/madrid/1174
es-1176,1176,Taco Bell C.C. Plaza Río 2,"Av. del Manzanares, 210",Madrid,Madrid,28026,ES,40.3908580,-3.7014640,,https://tacobell.es/es/restaurantes/madrid/1176
es-1179,1179,Taco Bell Alcala 358,"C/ Alcalá, 358",Madrid,Madrid,28027,ES,40.4350260,-3.6439185,,https://tacobell.es/es/restaurantes/madrid/1179
es-1181,1181,Taco Bell Pozuelo,"Vía de las Dos Castillas, 15",Madrid,Madrid,28224,ES,40.4341133,-3.7982198,,https://tacobell.es/es/restaurantes/madrid/1181
es-1182,1182,Taco Bell Moratalaz,"Calle Alcalde Luis Marichalar, 5",Madrid,Madrid,28030,ES,40.4114200,-3.6587439,,https://tacobell.es/es/restaurantes/madrid/1182
es-1183,1183,Taco Bell Conde Peñalver,"C/ Conde de Peñalver, 86, esq. Maldonado, 56",Madrid,Madrid,28006,ES,40.4333987,-3.6748405,,https://tacobell.es/es/restaurantes/madrid/1183
es-1005,1005,Taco Bell C.C. Gran Plaza 2,"C.C. Gran Plaza 2 - C/ de los Químicos, 2",Majadahonda,Madrid,28222,ES,40.4910909,-3.8974616,,https://tacobell.es/es/restaurantes/majadahonda/1005
es-1063,1063,Taco Bell C.C. Equinoccio Park,"C.C. Equinoccio Park - C/ Fresa , 2",Majadahonda,Madrid,28222,ES,40.4554473,-3.8746622,,https://tacobell.es/es/restaurantes/majadahonda/1063
es-1136,1136,Taco Bell Majadahonda,"Carretera de Boadilla del Monte, 2",Majadahonda,Madrid,28220,ES,40.4683694,-3.8709151,,https://tacobell.es/es/restaurantes/majadahonda/1136
es-1045,1045,Taco Bell Móstoles,"C/ Nápoles, 10, esquina Alfonso XII",Móstoles,Madrid,28938,ES,40.3137018,-3.8671017,,https://tacobell.es/es/restaurantes/móstoles/1045
es-1052,1052,Taco Bell Parla,"C/ Toledo, 40",Parla,Madrid,28981,ES,40.2288847,-3.7778036,,https://tacobell.es/es/restaurantes/parla/1052
es-1108,1108,Taco Bell C.C. H2O,"C.C. H2O - C/ Marie Curie, 4",Rivas Vaciamadrid,Madrid,28521,ES,40.3357906,-3.5274374,,https://tacobell.es/es/restaurantes/rivas vaciamadrid/1108
es-1163,1163,Taco Bell C.C. Las Rosas,"C.C. Las Rosas - Avda. de Guadalajara, 2",San Blas – Canillejas,Madrid,28032,ES,40.4193000,-3.6211200,,https://tacobell.es/es/restaurantes/san blas – canillejas/1163
es-1081,1081,Taco Bell C.C. Plaza Norte 2,"C.C. Plaza Norte 2 - Avda. del Juncal, 11",San Sebastián de los Reyes,Madrid,28703,ES,40.5408491,-3.6135122,,https://tacobell.es/es/restaurantes/san sebastián de los reyes/1081
es-1132,1132,Taco Bell C.C. Alegra,"C.C. Alegra - C/ Salvador de Madariaga, s/n",San Sebastián de los Reyes,Madrid,28702,ES,40.5664219,-3.6090633,,https://tacobell.es/es/restaurantes/san sebastián de los reyes/1132
es-1082,1082,Taco Bell Torrejón,"Avda. de la Constitución, 110",Torrejón de Ardoz,Madrid,28850,ES,40.4584563,-3.4659210,,https://tacobell.es/es/restaurantes/torrejón de ardoz/1082
es-1156,1156,Taco Bell C.C. Parque Corredor,"C.C. Parque Corredor - Carretera Torrejón a Ajalvir, s/n",Torrejón de Ardoz,Madrid,28850,ES,40.4783168,-3.4788076,,https://tacobell.es/es/restaurantes/torrejón de ardoz/1156
es-1002,1002,Taco Bell C.C. Espacio Mediterráneo,"C.C. Espacio Mediterráneo - C/ Riga, 87, Parcela 8.7 (Polígono Industrial Cabezo Baeza)",Cartagena,Murcia,30353,ES,37.6243612,-0.9502316,,https://tacobell.es/es/restaurantes/cartagena/1002
es-1009,1009,Taco Bell C.C. Nueva Condomina,"C.C Nueva Condomina - A7, Km 760, Autovía del Mediterráneo",Churra,Murcia,30110,ES,38.0403008,-1.1478299,,https://tacobell.es/es/restaurantes/churra/1009
es-1066,1066,Taco Bell C.C. Thader,"C.C. Thader - Avda. Juan de Borbón, s/n",Churra,Murcia,30110,ES,38.0314053,-1.1494274,,https://tacobell.es/es/restaurantes/churra/1066
es-1158,1158,"Taco Bell C.C. Vega Plaza, Molina","C.C. Vega Plaza - Avda. de Granada, s/n",Molina de Segura,Murcia,30500,ES,38.0559100,-1.2169200,,https://tacobell.es/es/restaurantes/molina de segura/1158
es-1180,1180,Taco Bell Los Patios,"Avda. de Velazquez 241, Crtra. de Cádiz",Malaga,Málaga,29004,ES,36.6872214,-4.4592771,,https://tacobell.es/es/restaurantes/malaga/1180
es-1184,1184,Taco Bell Málaga Nostrum,"C/ Jaén, 3 - Crtra. de Cádiz",Malaga,Málaga,29004,ES,36.6864785,-4.4710712,,https://tacobell.es/es/restaurantes/malaga/1184
es-1122,1122,Taco Bell C.C. La Cañada Shopping,"C.C. La Cañada Shopping - C/ Ojén, s/n",Marbella,Málaga,29603,ES,36.5214333,-4.8745305,,https://tacobell.es/es/restaurantes/marbella/1122
es-1007,1007,Taco Bell C.C. Vialia Málaga,"C.C. Vialia Estación María Zambrano - C/ Explanada de la Estación, s/n, local B1- 14A",Málaga,Málaga,29002,ES,36.7119447,-4.4328412,,https://tacobell.es/es/restaurantes/málaga/1007
es-1113,1113,"Taco Bell C.C. Plaza Mayor, Málaga","C.C. Plaza Mayor - C/ Alfonso Ponce de León, 3",Málaga,Málaga,29004,ES,36.6568144,-4.4784871,,https://tacobell.es/es/restaurantes/málaga/1113
es-1130,1130,Taco Bell C.C. Larios Centro,"C.C. Larios Centro - Avda. de la Aurora, 25",Málaga,Málaga,29002,ES,36.7160483,-4.4327245,,https://tacobell.es/es/restaurantes/málaga/1130
es-1037,1037,Taco Bell C.C. La Morea,C.C. La Morea - Barrio La Morea s/n,Cordovilla,Navarra,31191,ES,42.7847919,-1.6312986,,https://tacobell.es/es/restaurantes/cordovilla/1037
es-1012,1012,Taco Bell Pamplona,"Plaza Pintor Paret, 1",Pamplona,Navarra,31008,ES,42.8083557,-1.6601104,,https://tacobell.es/es/restaurantes/pamplona/1012
es-1146,1146,Taco Bell C.C. Ponte Vella,"C.C. Ponte Vella - Avda. Ribeira Sacra, 48",Ourense,Ourense,32003,ES,42.3447434,-7.8653781,,https://tacobell.es/es/restaurantes/ourense/1146
es-1035,1035,Taco Bell P.C. Arambol,"P.C. Arambol - Avda. Brasilia, 1",Palencia,Palencia,34004,ES,42.0122258,-4.5195483,,https://tacobell.es/es/restaurantes/palencia/1035
es-1023,1023,Taco Bell C.C. Vialia Vigo,"C.C. Vialia Estación de Vigo - Praza Estación, 1",Vigo,Pontevedra,36201,ES,42.2353958,-8.7103316,,https://tacobell.es/es/restaurantes/vigo/1023
es-1033,1033,Taco Bell Salamanca Centro,"C/ Concejo, 5",Salamanca,Salamanca,37002,ES,40.9657186,-5.6644690,,https://tacobell.es/es/restaurantes/salamanca/1033
es-1019,1019,Taco Bell Santa Marta,"Ctra. Madrid, 4",Santa Marta de Tormes,Salamanca,37900,ES,40.9505223,-5.6525731,,https://tacobell.es/es/restaurantes/santa marta de tormes/1019
es-1115,1115,Taco Bell C.C. Meridiano,"C.C. Meridiano - Avda. Manuel Hermoso Rojas, 16",Santa Cruz de Tenerife,Santa Cruz de Tenerife,38005,ES,28.4579077,-16.2580101,,https://tacobell.es/es/restaurantes/santa cruz de tenerife/1115
es-1107,1107,Taco Bell C.C. Parque Guadaíra,C.C. Parque Guadaíra. Local L1-L2-L3. Avda. Príncipe de Asturias Nº 2,Alcalá de Guadaíra,Sevilla,41500,ES,37.3531688,-5.8591450,,https://tacobell.es/es/restaurantes/alcalá de guadaíra/1107
es-1143,1143,Taco Bell C.C. Sevilla Factory Dos Hermanas,C.C. Sevilla Factory Dos Hermanas - Avda. 4 de Diciembre,Dos Hermanas,Sevilla,41703,ES,37.2880600,-5.9424493,,https://tacobell.es/es/restaurantes/dos hermanas/1143
es-1185,1185,Taco Bell Gines,"Av. de la Industria, P.E. Servialsa, Edificio Terrats",Gines,Sevilla,41960,ES,37.3814637,-6.0831515,,https://tacobell.es/es/restaurantes/gines/1185
es-1034,1034,Taco Bell Viapol,"Cl/ Enramadilla, s/n",Sevilla,Sevilla,41018,ES,37.3788998,-5.9788866,,https://tacobell.es/es/restaurantes/sevilla/1034
es-1074,1074,Taco Bell Santo Tomás,"C/ Santo Tomas, 17",Sevilla,Sevilla,41004,ES,37.3840563,-5.9935248,,https://tacobell.es/es/restaurantes/sevilla/1074
es-1101,1101,Taco Bell Kansas City,"Carretera de Carmona esq. C/ Metalurgia,",Sevilla,Sevilla,41007,ES,37.4032014,-5.9607772,,https://tacobell.es/es/restaurantes/sevilla/1101
es-1119,1119,Taco Bell La Campana,"C/ Campana, 2",Sevilla,Sevilla,41002,ES,37.3928256,-5.9950813,,https://tacobell.es/es/restaurantes/sevilla/1119
es-1131,1131,Taco Bell C.C. Nervión Plaza,"C.C Nervión Plaza - C/ Luis de Morales, 3, Local L4",Sevilla,Sevilla,41005,ES,37.3836876,-5.9721281,,https://tacobell.es/es/restaurantes/sevilla/1131
es-1165,1165,Taco Bell C.C. Torre Sevilla,"C.C. Torre Sevilla - Pl. Alcalde Sánchez Monteseirín, 2",Sevilla,Sevilla,41092,ES,37.3913400,-6.0102700,,https://tacobell.es/es/restaurantes/sevilla/1165
es-1171,1171,Taco Bell Salou,"Av. Principado de Andorra, 6",Salou,Tarragona,43840,ES,41.0734620,1.1445370,,https://tacobell.es/es/restaurantes/salou/1171
es-1166,1166,"Taco Bell C.C. Les Gavarres, Tarragona","C.C. Les Gavarres - Carrer Josep Maria Folch I Torres, 4",Tarragona,Tarragona,43006,ES,41.1308580,1.1996490,,https://tacobell.es/es/restaurantes/tarragona/1166
es-1046,1046,Taco Bell C.C. Abadía,"C.C. Abadía - CM-4003, s/n",Toledo,Toledo,45003,ES,39.9057777,-4.0167998,,https://tacobell.es/es/restaurantes/toledo/1046
es-1051,1051,Taco Bell C.C. Luz del Tajo,"C.C. Luz del Tajo - Avda. del Río Boladiez, s/n",Toledo,Toledo,45007,ES,39.8628322,-3.9762582,,https://tacobell.es/es/restaurantes/toledo/1051
es-1075,1075,Taco Bell C.C. Bonaire,"C.C. Bonaire - Carretera A-3, Km 345",Aldaia,Valencia,46960,ES,39.4720342,-0.4901175,,https://tacobell.es/es/restaurantes/aldaia/1075
es-1073,1073,Taco Bell C.C. Alfafar,"C.C. Alfafar - C/ del Alcalde José Puertes, s/n",Alfafar,Valencia,46910,ES,39.4155214,-0.3815627,,https://tacobell.es/es/restaurantes/alfafar/1073
es-1161,1161,Taco Bell Gandía,"Avinguda de Blasco Ibáñez, 1",Gandía,Valencia,46701,ES,38.9714543,-0.1704337,,https://tacobell.es/es/restaurantes/gandía/1161
es-1151,1151,"Taco Bell C.C. L´Epicentre, Sagunto","C.C. L´Epicentre - Avda. Fausto Caruana, 37",Sagunto,Valencia,46520,ES,39.6722096,-0.2506806,,https://tacobell.es/es/restaurantes/sagunto/1151
es-1001,1001,Taco Bell Blasco Ibañez,"Avda. Blasco Ibáñez, 144",Valencia,Valencia,46022,ES,39.4731980,-0.3479037,,https://tacobell.es/es/restaurantes/valencia/1001
es-1040,1040,Taco Bell C.C. Nuevo Centro,"C.C. Nuevo Centro - Avda. Pío XII, 2",Valencia,Valencia,46009,ES,39.4796516,-0.3908669,,https://tacobell.es/es/restaurantes/valencia/1040
es-1041,1041,Taco Bell C.C. Aqua-Multiespacio,C.C. Aqua-Multiespacio - C/Menorca 19 local 2-19,Valencia,Valencia,46023,ES,39.4566515,-0.3458620,,https://tacobell.es/es/restaurantes/valencia/1041
es-1060,1060,"Taco Bell Ayuntamiento, Valencia","Plaza del Ayuntamiento, 20",Valencia,Valencia,46002,ES,39.4704978,-0.3759089,,https://tacobell.es/es/restaurantes/valencia/1060
es-1088,1088,Taco Bell Ruzafa,"C/ Ruzafa, 1",Valencia,Valencia,46004,ES,39.4668536,-0.3746966,,https://tacobell.es/es/restaurantes/valencia/1088
es-1177,1177,Taco Bell Paterna,C.C. Heron City Paterna,Valencia,Valencia,46980,ES,39.5298650,-0.4413730,,https://tacobell.es/es/restaurantes/valencia/1177
es-1024,1024,"Taco Bell Plaza Mayor, Valladolid","Plaza Mayor, 21",Valladolid,Valladolid,47001,ES,41.6522646,-4.7292709,,https://tacobell.es/es/restaurantes/valladolid/1024
es-1036,1036,"Taco Bell Bolón, Zamora","Cta. Bolón, 2",Zamora,Zamora,49023,ES,41.5118291,-5.7481972,,https://tacobell.es/es/restaurantes/zamora/1036
es-1013,1013,Taco Bell C.C. Puerto Venecia,"C.C. Puerto Venecia - Travesia de los Jardines Reales, 7",Zaragoza,Zaragoza,50021,ES,41.6078138,-0.8869770,,https://tacobell.es/es/restaurantes/zaragoza/1013
es-1043,1043,Taco Bell Alfonso I,"C/ Alfonso I, 10",Zaragoza,Zaragoza,50003,ES,41.6535256,-0.8814741,,https://tacobell.es/es/restaurantes/zaragoza/1043
es-1098,1098,Taco Bell C.C. Gran Casa,"C.C. Gran Casa - C/ de la Poetisa María Zambrano, 35, Local 2.20",Zaragoza,Zaragoza,50018,ES,41.6708306,-0.8900083,,https://tacobell.es/es/restaurantes/zaragoza/1098
es-1025,1025,Taco Bell Vitoria Gamarra,"C/ Portal de Gamarra, 24A",Vitoria-Gasteiz,Álava,01013,ES,42.8601705,-2.6621598,,https://tacobell.es/es/restaurantes/vitoria-gasteiz/1025
fi-320,320,Taco Bell,Finnoonristi 3,Espoo,,02270,FI,60.1615079,24.7049334,+358 41 7317351,https://tacobell.fi/ravintolat/
fi-319,319,Taco Bell,Nihtisilta 4,Espoo,,02630,FI,60.2070916,24.7496322,+358 40 1862715,https://tacobell.fi/ravintolat/
fi-314,314,Taco Bell,Piispansilta 9,Espoo,,02230,FI,60.1606802,24.7375733,+358 40 6865266,https://tacobell.fi/ravintolat/
fi-305,305,Taco Bell,Leppävaarankatu 3-9,Espoo,,02600,FI,60.2186337,24.8131597,+358 40 6865284,https://tacobell.fi/ravintolat/
fi-1609,1609,Taco Bell,Hermannin rantatie 5,Helsinki,,00580,FI,60.1889307,24.9788557,+358 44 9023575,https://tacobell.fi/ravintolat/
fi-318,318,Taco Bell,Urho Kekkosen katu 1,Helsinki,,00100,FI,60.1692287,24.9338122,+358 44 4203160,https://tacobell.fi/ravintolat/
fi-316,316,Taco Bell,Itäkatu 1-5,Helsinki,,00930,FI,60.2119548,25.0837075,+358 40 6530536,https://tacobell.fi/ravintolat/
fi-311,311,Taco Bell,Kalevankatu 2,Helsinki,,00100,FI,60.1679974,24.9402026,+358 40 6865301,https://tacobell.fi/ravintolat/
fi-307,307,Taco Bell,Fredrikinkatu 65,Helsinki,,00100,FI,60.1691308,24.9305909,+358 40 4837674,https://tacobell.fi/ravintolat/
fi-312,312,Taco Bell,Kauppakatu 22,Jyväskylä,,40100,FI,62.2424308,25.7472897,+358 41 7314563,https://tacobell.fi/ravintolat/
fi-313,313,Taco Bell,Kauppakatu 29-31,Lappeenranta,,53100,FI,61.0593271,28.1852537,+358 40 5875996,https://tacobell.fi/ravintolat/
fi-317,317,Taco Bell,Kirkkokatu 14,Oulu,,90100,FI,65.0114683,25.4695024,+358 44 4203159,https://tacobell.fi/ravintolat/
fi-321,321,Taco Bell,Hämeenkatu 6,Tampere,,33100,FI,61.4986746,23.7696519,+358 41 7324742,https://tacobell.fi/ravintolat/
fi-308,308,Taco Bell,Hatanpään valtatie 1,Tampere,,33100,FI,61.4955181,23.7681073,+358 41 7314564,https://tacobell.fi/ravintolat/
fi-1635,1635,Taco Bell,Röyttäntie 1,Tornio,,95420,FI,65.8438568,24.1662308,+358 44 9028022,https://tacobell.fi/ravintolat/
fi-309,309,Taco Bell,Eerikinkatu 15,Turku,,20100,FI,60.4502953,22.2652598,+358 40 6812657,https://tacobell.fi/ravintolat/
fi-306,306,Taco Bell,Hyrylänkatu 2,Tuusula,,04300,FI,60.3975038,25.0214994,+358 41 7314565,https://tacobell.fi/ravintolat/
fi-315,315,Taco Bell,Tasetie 8,Vantaa,,01510,FI,60.2907931,24.9687060,+358 40 6302098,https://tacobell.fi/ravintolat/
fi-310,310,Taco Bell,Ratatie 11,Vantaa,,01300,FI,60.2919755,25.0433000,+358 40 7190316,https://tacobell.fi/ravintolat/
fr-fr-13338460924,fr-13338460924,Taco Bell,Rue de la Côte d'Amour,Saint-Lyphard,Pays de la Loire,44410,FR,47.3981254,-2.3058668,,
gb-094010,094010,Taco Bell,123 Union Street,Aberdeen,Aberdeen City,AB11 6BH,GB,57.1462407,-2.0995061,+44 1224 589063,https://www.tacobell.co.uk/locations/l/aberdeen/123-union-street/6035850
gb-099011,099011,Taco Bell,Riverside Close,Bedford,Bedford,MK40 1NY,GB,52.1348268,-0.4698141,+44 1234 866155,https://www.tacobell.co.uk/locations/l/bedford/riverside-close/6035790
gb-098009,098009,Taco Bell,M4,Lambourn Woodlands,Berkshire,RG17 7TZ,GB,51.4836724,-1.5573662,+44 1234 567891,https://www.tacobell.co.uk/locations/l/lambourn-woodlands/m4/6035800
gb-093014,093014,Taco Bell,207 Broad Street Mall,Reading,Berkshire,RG1 7QH,GB,51.4551867,-0.9755673,+44 118 959 7213,https://www.tacobell.co.uk/locations/l/reading/207-broad-street-mall/6035842
gb-091013,091013,Taco Bell,52-54 King William Street,Blackburn,Blackburn with Darwen,BB1 7DP,GB,53.7489656,-2.4835719,+44 1234 567891,https://www.tacobell.co.uk/locations/l/blackburn/52-54-king-william-street/6035799
gb-094038,094038,Taco Bell,96 Rigby Road,Blackpool,Blackpool,FY1 5EP,GB,53.8081272,-3.0465421,+44 1253 200388,https://www.tacobell.co.uk/locations/l/blackpool/96-rigby-road/6035759
gb-093006,093006,Taco Bell,146-148 Old Christchurch Road,Bournemouth,"Bournemouth, Christchurch and Poole",BH1 1NL,GB,50.7222725,-1.8732438,+44 1202 291381,https://www.tacobell.co.uk/locations/l/bournemouth/146-148-old-christchurch-road/6035834
gb-093007,093007,Taco Bell,Yarrow Road,Poole,"Bournemouth, Christchurch and Poole",BH12 4NY,GB,50.7462965,-1.9526878,+44 1202 741065,https://www.tacobell.co.uk/locations/l/poole/yarrow-road/6035822
gb-093032,093032,Taco Bell,134-135 London Road,Brighton,Brighton and Hove,BN1 4JH,GB,50.8300457,-0.1357439,,https://www.tacobell.co.uk/locations/l/brighton/134-135-london-road/6035874
gb-095013,095013,Taco Bell,64 Queens Road,Bristol,Bristol City,BS8 1RE,GB,51.4569762,-2.6073561,+44 117 226 2545,https://www.tacobell.co.uk/locations/l/bristol/64-queens-road/6035889
gb-091006,091006,Taco Bell,Newlands Meadow,High Wycombe,Buckinghamshire,HP11 2BZ,GB,51.6304872,-0.7558546,,https://www.tacobell.co.uk/locations/l/high-wycombe/newlands-meadow/6035773
gb-094035,094035,Taco Bell,10 Market Street,Cambridge,Cambridgeshire,CB2 3PA,GB,52.2061938,0.1199359,+44 1223 679088,https://www.tacobell.co.uk/locations/l/cambridge/10-market-street/6035749
gb-099008,099008,Taco Bell,Kings Ripton Road,Huntingdon,Cambridgeshire,PE29 7EG,GB,52.3512134,-0.1801062,+44 1480 782311,https://www.tacobell.co.uk/locations/l/huntingdon/kings-ripton-road/6035804
gb-098011,098011,Taco Bell,A1,Peterborough,Cambridgeshire,PE7 3UJ,GB,52.5439724,-0.3316790,,https://www.tacobell.co.uk/locations/l/peterborough/a1/6283182
gb-099012,099012,Taco Bell,Cromwell Road,Wisbech,Cambridgeshire,PE14 0RG,GB,52.6517596,0.1434050,+44 1945 660744,https://www.tacobell.co.uk/locations/l/wisbech/cromwell-road/6035789
gb-095001,095001,Taco Bell,92 Saint Mary Street,Cardiff,Cardiff,CF10 1DX,GB,51.4787995,-3.1786821,+44 29 2037 1005,https://www.tacobell.co.uk/locations/l/cardiff/92-saint-mary-street/6035843
gb-095007,095007,Taco Bell,511 Newport Road,Cardiff,Cardiff,CF23 9AD,GB,51.4989840,-3.1420580,+44 29 2176 8226,https://www.tacobell.co.uk/locations/l/cardiff/511-newport-road/6035867
gb-091002,091002,Taco Bell - Chester Coliseum,Coliseum Way,Ellesmere Port,Cheshire West and Chester,CH65 9HD,GB,53.2641008,-2.8857699,+44 151 317 3444,https://www.tacobell.co.uk/locations/l/ellesmere-port/coliseum-way/6035767
gb-095023,095023,Taco Bell,Cornish Gateway Services,St Austell,Cornwall,PL26 8UF,GB,50.4259766,-4.8158414,+44 1726 405223,https://www.tacobell.co.uk/locations/l/st-austell/cornish-gateway-services/6035757
gb-095026,095026,Taco Bell,Normanton Road,Derby,Derby,DE1 2GH,GB,52.9158234,-1.4779245,+44 1234 567891,https://www.tacobell.co.uk/locations/l/derby/normanton-road/6035795
gb-092028,092028,Taco Bell,Derby Road,Chesterfield,Derbyshire,S40 2EZ,GB,53.2291703,-1.4222179,+44 1246 956922,https://www.tacobell.co.uk/locations/l/chesterfield/derby-road/6035751
gb-095018,095018,Taco Bell,Taw Wharf,Barnstaple,Devon,EX31 2AA,GB,51.0776231,-4.0641093,+44 1271 532355,https://www.tacobell.co.uk/locations/l/barnstaple/taw-wharf/6035746
gb-095019,095019,Taco Bell,38 Sidwell Street,Exeter,Devon,EX4 6NS,GB,50.7272535,-3.5241776,+44 1392 933932,https://www.tacobell.co.uk/locations/l/exeter/38-sidwell-street/6035754
